amenity,name,cuisine,longitude,latitude
restaurant,Billar,N/A,-74.1533,4.6007
bar,nectar,N/A,-74.1381,4.5831
bar,Estrella,N/A,-74.1302,4.6332
bar,El Chou,N/A,-74.1292,4.6329
bar,El Pino,N/A,-74.0989,4.5577
bar,103A03,N/A,-74.1482,4.6735
bar,LA CANTINA,N/A,-74.1481,4.6733
bar,N/A,N/A,-74.1009,4.7067
bar,Video Bar Mi Caliche,N/A,-74.1045,4.604
bar,Hollywood,N/A,-74.0712,4.7127
bar,sabana bar,N/A,-74.0651,4.6328
bar,terrasa de san esteban,N/A,-74.065,4.6321
bar,N/A,N/A,-74.1427,4.6212
bar,N/A,N/A,-74.0889,4.7347
bar,N/A,N/A,-74.0831,4.5642
bar,N/A,N/A,-74.0834,4.5648
bar,Colombia Club,N/A,-74.064,4.6376
bar,Saloon,N/A,-74.0641,4.6377
bar,Bar Indigo,N/A,-74.0639,4.6381
bar,N/A,N/A,-74.0641,4.6347
bar,Pub House,N/A,-74.0635,4.6379
bar,Casa Babylon,N/A,-74.0641,4.636
bar,Delfines paisa,N/A,-74.1444,4.6063
bar,Manantial,N/A,-74.1439,4.6054
bar,Cigarrera La camila,N/A,-74.1065,4.6829
bar,La licorera,N/A,-74.1067,4.6826
bar,Mono Fonica,N/A,-74.1067,4.6825
bar,cafe bar,N/A,-74.0683,4.6358
bar,N/A,N/A,-74.0662,4.6372
bar,N/A,N/A,-74.0471,4.6768
bar,Dublin Irish Pub,N/A,-74.0694,4.6893
bar,Bar y Billar Barbilla Poker,N/A,-74.0257,4.7042
bar,N/A,N/A,-74.0667,4.7226
bar,San Martin Bar,N/A,-74.1244,4.5984
bar,Bar Rock,N/A,-74.1242,4.5993
bar,Estanco 45,N/A,-74.0698,4.6327
bar,N/A,N/A,-74.1389,4.6084
bar,Karaoke Bar,N/A,-74.0812,4.6847
bar,Son Lucas,N/A,-74.0811,4.6848
bar,El Macho Cantina,N/A,-74.0544,4.6687
bar,Shots Bar,N/A,-74.055,4.669
bar,La Corona,N/A,-74.0782,4.6712
bar,Viva Libre,N/A,-74.1051,4.6693
bar,Los Diablitos,N/A,-74.0558,4.7162
bar,El Bar de Marce,N/A,-74.105,4.7064
bar,Mr. Beer,N/A,-74.0299,4.7647
bar,Ozzy,N/A,-74.1018,4.6785
bar,N/A,N/A,-74.0885,4.7337
bar,WINE LOVERS,N/A,-74.0322,4.7029
bar,N/A,N/A,-74.1178,4.6952
bar,Bar La Cabaña,N/A,-74.1316,4.7044
bar,Bar Los Recuerdos de Ella,N/A,-74.1178,4.6945
bar,Galeria bar,N/A,-74.0685,4.6038
bar,N/A,N/A,-74.1119,4.5939
bar,SUG,N/A,-74.0907,4.6055
bar,Agula Bar La Paisa,N/A,-74.0954,4.5919
bar,N/A,N/A,-74.0877,4.5971
bar,H.J. Sarmiento,N/A,-74.1004,4.5658
bar,Restaurante Bar San Pedro,N/A,-74.0985,4.585
bar,Rockola Bar Rana,N/A,-74.1072,4.6309
bar,Jackass Bar,N/A,-74.1052,4.6694
bar,Plaza Mexico,N/A,-74.1183,4.6678
bar,Shala,N/A,-74.1354,4.6135
bar,Shala Bar,N/A,-74.1355,4.6138
bar,La Estacion,N/A,-74.1335,4.6292
bar,Club de Billares,N/A,-74.1329,4.6158
bar,Limbo Bar,N/A,-74.136,4.6152
bar,El Bar De las Cervasa,N/A,-74.1362,4.6155
bar,Happy Night,N/A,-74.1363,4.6155
bar,Restaurante Bar,N/A,-74.1309,4.6252
bar,Capital Pub,N/A,-74.1378,4.6178
bar,Drink's & Dream's,N/A,-74.1327,4.5671
bar,La Vasca,N/A,-74.0509,4.6766
bar,Tom Y Jerry,N/A,-74.2122,4.6142
bar,San Uriel,N/A,-74.0196,4.6736
bar,Compostela,N/A,-74.0129,4.6681
bar,La Reina Cantina,N/A,-74.1107,4.6679
bar,N/A,N/A,-74.0691,4.6182
bar,N/A,N/A,-74.0757,4.6411
bar,Van Der,N/A,-74.071,4.6242
bar,La Rumba,N/A,-74.0702,4.6237
bar,Bar Oasis 07,N/A,-74.1425,4.7154
bar,Cigarreria Titanic Bar,N/A,-74.1425,4.7161
bar,N/A,N/A,-74.1447,4.5986
bar,Beerland,N/A,-74.0762,4.6413
bar,Colombian Pub,N/A,-74.0759,4.6418
bar,Villanueva,N/A,-74.0759,4.6416
bar,Margaritas,N/A,-74.0761,4.6419
bar,Kabala,N/A,-74.0761,4.6418
bar,PLAZA JUAREZ,N/A,-74.0761,4.6416
bar,Kandelaria,N/A,-74.0761,4.6415
bar,Grill El Escorial,N/A,-74.1264,4.5678
bar,El parador,N/A,-74.1239,4.5599
bar,Wiskeria Punto 50,N/A,-74.1266,4.5676
bar,Tienda BAR bailey,N/A,-74.1292,4.5638
bar,Salome Pagana,N/A,-74.0556,4.6678
bar,Billar Berlín,N/A,-74.0779,4.6345
bar,Rancho Garibaldi,N/A,-74.032,4.8191
bar,N/A,N/A,-74.0493,4.7554
bar,restaurante-bar,N/A,-74.051,4.7559
bar,Ciro,N/A,-74.0658,4.6293
bar,Copacabana,N/A,-74.1304,4.6039
bar,Palco 53,N/A,-74.1057,4.6703
bar,La Gran Terraza,N/A,-74.0542,4.6685
bar,"Galería, Café y Libro",N/A,-74.0479,4.6754
bar,Castel Blue,N/A,-74.1345,4.6131
bar,Full 80´S,N/A,-74.0476,4.6796
bar,N/A,N/A,-74.1727,4.6263
bar,N/A,N/A,-74.14,4.5541
bar,Sinaloa,N/A,-74.1086,4.6699
bar,Tequila Bar,N/A,-74.1043,4.6735
bar,AsiloBar,N/A,-74.0685,4.6287
bar,Etniko,N/A,-74.0644,4.6311
bar,La Oficina,N/A,-74.0658,4.6275
bar,Academia de Billar,N/A,-74.0792,4.6342
bar,La Cava Salsa Bar,N/A,-74.0844,4.7422
bar,AGg,N/A,-74.0694,4.6074
bar,Indie Cave - Music Bar,N/A,-74.0627,4.6451
bar,Whiskería Porky's,N/A,-74.1376,4.5946
bar,Café Bar Arábigos,N/A,-74.0865,4.6309
bar,La chuperia,N/A,-74.0792,4.6341
bar,Malabar,N/A,-74.0638,4.6376
bar,Soko Bar,N/A,-74.0637,4.6376
bar,N/A,N/A,-74.1638,4.6464
bar,Los Cadenales,N/A,-74.0953,4.5712
bar,N/A,N/A,-74.1,4.5841
bar,N/A,N/A,-74.1003,4.5838
bar,N/A,N/A,-74.1001,4.5836
bar,N/A,N/A,-74.1004,4.5837
bar,N/A,N/A,-74.1005,4.5839
bar,N/A,N/A,-74.1005,4.584
bar,N/A,N/A,-74.1006,4.5841
bar,N/A,N/A,-74.1007,4.5843
bar,N/A,N/A,-74.1006,4.5839
bar,N/A,N/A,-74.1008,4.5841
bar,N/A,N/A,-74.1007,4.5845
bar,N/A,N/A,-74.1006,4.5844
bar,N/A,N/A,-74.1005,4.5845
bar,N/A,N/A,-74.1006,4.5847
bar,N/A,N/A,-74.1005,4.5848
bar,N/A,N/A,-74.1008,4.5844
bar,Broadway Karaoke,N/A,-74.1001,4.5848
bar,N/A,N/A,-74.1,4.5841
bar,N/A,N/A,-74.0999,4.584
bar,Martica Bar,N/A,-74.0915,4.573
bar,Curuba Café Bar,N/A,-74.0688,4.628
bar,Le bar de la Biere,N/A,-74.1551,4.6
bar,Canares Lounge,N/A,-74.0645,4.6316
bar,Kovalto Bar,N/A,-74.0684,4.6297
bar,Sanwich-Bar,N/A,-74.155,4.5998
bar,Boos Bonny,N/A,-74.0985,4.5837
bar,N/A,N/A,-74.1481,4.6734
bar,Azul,N/A,-74.1192,4.6101
bar,N/A,N/A,-74.1479,4.675
bar,Los Elegidos,N/A,-74.0505,4.7503
bar,N/A,N/A,-74.1795,4.6331
bar,El Bigotudo,N/A,-74.0503,4.75
bar,N/A,N/A,-74.0971,4.7066
bar,N/A,N/A,-74.0966,4.7062
bar,Mi lindo Puerto Rico,N/A,-74.1032,4.7557
bar,Santana,N/A,-74.1084,4.7526
bar,Radio Transistor,N/A,-74.0658,4.6276
bar,Okey Paisa,N/A,-74.0476,4.7571
bar,N/A,N/A,-74.1245,4.7075
bar,N/A,N/A,-74.1475,4.6746
bar,N/A,N/A,-74.1329,4.5999
bar,OPEN,N/A,-74.1004,4.7067
bar,Edi son,N/A,-74.1005,4.7074
bar,N/A,N/A,-74.099,4.7066
bar,N/A,N/A,-74.0971,4.6757
bar,Potrerito,N/A,-74.0787,4.6341
bar,N/A,N/A,-74.0785,4.634
bar,Deep Blue,N/A,-74.0799,4.6333
bar,La Turquesa,N/A,-74.0824,4.6316
bar,Bavara Bar,N/A,-74.0819,4.6315
bar,Academia de Billar La Nacional,N/A,-74.0782,4.6342
bar,N/A,N/A,-74.1542,4.6379
bar,N/A,N/A,-74.1543,4.6379
bar,Casa Vieja,N/A,-74.1701,4.6248
bar,Billares,N/A,-74.1392,4.5944
bar,La fonda Antioqueña,N/A,-74.1394,4.5947
bar,Billares,N/A,-74.1382,4.5943
bar,Triamonthy,N/A,-74.1385,4.5931
bar,Casa Bar,N/A,-74.1384,4.5931
bar,Club de Billares Floralia,N/A,-74.1324,4.6108
bar,N/A,N/A,-74.107,4.6954
bar,Terraza San Esteban,N/A,-74.0649,4.6321
bar,la sede del futbolista,N/A,-74.0892,4.6888
bar,donde lucas,N/A,-74.0897,4.6887
bar,BAR,N/A,-74.0484,4.7588
bar,bar 80,N/A,-74.0487,4.7584
bar,bar,N/A,-74.0487,4.7584
bar,bar,N/A,-74.0484,4.7583
bar,cigarreria bar 43,N/A,-74.0476,4.7574
bar,N/A,N/A,-74.1686,4.6081
bar,Sabana Bar,N/A,-74.0651,4.6328
bar,BAR,N/A,-74.1093,4.654
bar,Gatogris,N/A,-74.1782,4.6305
bar,La Pruebita,N/A,-74.0973,4.7124
bar,N/A,N/A,-74.132,4.5817
bar,Chupitos Bar,N/A,-74.0558,4.6678
bar,Crown Casinos/Bar,N/A,-74.055,4.6679
bar,Sunrise Bar,N/A,-74.0555,4.6686
bar,Vaquerito Bar,N/A,-74.056,4.6674
bar,N/A,N/A,-74.1142,4.7566
bar,N/A,N/A,-74.1148,4.756
bar,N/A,N/A,-74.115,4.7557
bar,N/A,N/A,-74.1142,4.7579
bar,Son 4 ruta-Bar,N/A,-74.0678,4.6347
bar,Terraza 47,N/A,-74.0679,4.6347
bar,Magna Music hall,N/A,-74.0679,4.6347
bar,N/A,N/A,-74.0681,4.6347
bar,Cafe Bar Demetrius,N/A,-74.0661,4.6384
bar,N/A,N/A,-74.0473,4.7583
bar,TIKAL,N/A,-74.102,4.5898
bar,El Rinconcito,N/A,-74.067,4.6334
bar,Picapiedra,N/A,-74.0669,4.6334
bar,La Sombrilla,N/A,-74.0668,4.6334
bar,Punto Orange,N/A,-74.0667,4.6334
bar,N/A,N/A,-74.1009,4.7393
bar,Tienda el Barcito,N/A,-74.0678,4.6335
bar,Palermo 45,N/A,-74.0668,4.6325
bar,In my place,N/A,-74.0664,4.633
bar,N/A,N/A,-74.0666,4.6317
bar,Chicas malas,N/A,-74.0666,4.6365
bar,N/A,N/A,-74.0667,4.6365
bar,Ventanilla blanca,N/A,-74.0667,4.6366
bar,Cafe internet bar,N/A,-74.0667,4.6366
bar,Berajad,N/A,-74.1493,4.6028
bar,venta insumos de cerveza,N/A,-74.0798,4.6768
bar,PATO MAR,N/A,-74.178,4.628
bar,BILLARES LEÓN,N/A,-74.1775,4.6281
bar,EL PORTAL,N/A,-74.1776,4.6278
bar,METALLICA,N/A,-74.1773,4.6278
bar,DIVERMANIA,N/A,-74.0651,4.638
bar,Moon Pub,N/A,-74.1126,4.6585
bar,Karaoke,N/A,-74.1127,4.6586
bar,Apartamento 101,N/A,-74.1127,4.6587
bar,San Sebastián,N/A,-74.1127,4.6588
bar,Romeo,N/A,-74.1127,4.6589
bar,Bar Berakah,N/A,-74.15,4.6028
bar,N/A,N/A,-74.2117,4.6114
bar,El Bandi,N/A,-74.0661,4.6296
bar,Good Game,N/A,-74.0659,4.6292
bar,D horemo,N/A,-74.0984,4.7471
bar,san martina,N/A,-74.098,4.7475
bar,los rosales,N/A,-74.0983,4.7469
bar,Billar Danubio Club,N/A,-74.0662,4.6373
bar,N/A,N/A,-74.1309,4.5815
bar,Somos La Diferencia,N/A,-74.1157,4.5021
bar,BIZARRE ROCK BAR,N/A,-74.0781,4.6341
bar,N/A,N/A,-74.0482,4.758
bar,N/A,N/A,-74.146,4.6505
bar,N/A,N/A,-74.1467,4.6498
bar,N/A,N/A,-74.0466,4.7578
bar,N/A,N/A,-74.0473,4.758
bar,Los 3 gaticos,N/A,-74.0476,4.7575
bar,bar el chalet,N/A,-74.1076,4.5509
bar,N/A,N/A,-74.1429,4.6078
bar,N/A,N/A,-74.143,4.6067
bar,14 Inkas,N/A,-74.0296,4.6958
bar,Cigarrería guepaje,N/A,-74.0859,4.628
bar,Statua Rota,N/A,-74.0624,4.6403
bar,cigarreria tío sam,N/A,-74.0754,4.6456
bar,MORENA SALSA,N/A,-74.1166,4.5117
bar,La Villa Gringo Tuesdays,N/A,-74.0551,4.669
bar,N/A,N/A,-74.1387,4.6188
bar,N/A,N/A,-74.1387,4.6189
bar,N/A,N/A,-74.1386,4.6189
bar,N/A,N/A,-74.1386,4.6188
bar,N/A,N/A,-74.1385,4.6189
bar,N/A,N/A,-74.1385,4.6188
bar,N/A,N/A,-74.1384,4.6189
bar,N/A,N/A,-74.1384,4.6188
bar,N/A,N/A,-74.1384,4.6188
bar,N/A,N/A,-74.1384,4.6189
bar,N/A,N/A,-74.1383,4.6188
bar,N/A,N/A,-74.1382,4.6189
bar,N/A,N/A,-74.1382,4.6189
bar,N/A,N/A,-74.1381,4.6189
bar,N/A,N/A,-74.1382,4.6187
bar,N/A,N/A,-74.1381,4.6187
bar,N/A,N/A,-74.138,4.6187
bar,N/A,N/A,-74.138,4.6189
bar,N/A,N/A,-74.138,4.6189
bar,N/A,N/A,-74.138,4.6187
bar,N/A,N/A,-74.1379,4.6189
bar,N/A,N/A,-74.1379,4.6187
bar,N/A,N/A,-74.1379,4.6187
bar,N/A,N/A,-74.1378,4.6189
bar,N/A,N/A,-74.1376,4.6189
bar,N/A,N/A,-74.1375,4.619
bar,N/A,N/A,-74.0644,4.6413
bar,barcelona bar,N/A,-74.1484,4.6401
bar,L'Aldea,N/A,-74.0682,4.6009
bar,Bolon de Verde,N/A,-74.0696,4.5971
bar,La Cascada,N/A,-74.0967,4.6704
bar,Alcatraz,N/A,-74.097,4.6692
bar,Clan Fami,N/A,-74.0969,4.6695
bar,N/A,N/A,-74.1439,4.6113
bar,La Trampa Vallenata,N/A,-74.0766,4.6424
bar,Sports Cafe Bar,N/A,-74.076,4.6422
bar,El gato naranjo,N/A,-74.0702,4.6005
bar,GrindHouse,N/A,-74.0388,4.6699
bar,Tramoya,N/A,-74.0774,4.6344
bar,Cantina NN,N/A,-74.0909,4.6219
bar,El Mono Bandido,N/A,-74.06,4.654
bar,Rosas,N/A,-74.0704,4.6005
bar,Billiars,N/A,-74.0722,4.6007
bar,Jimenez,N/A,-74.0717,4.6006
bar,Papyros,N/A,-74.0702,4.6005
bar,Bogotá Beer Company Bodega,N/A,-74.0749,4.6296
bar,Villa Tranvia,N/A,-74.0691,4.6004
bar,Super Chicha,N/A,-74.0695,4.5981
bar,Bodega 15/08/17,N/A,-74.0736,4.5952
bar,N/A,N/A,-74.0674,4.6596
bar,N/A,N/A,-74.0741,4.6304
bar,N/A,N/A,-74.0589,4.6559
bar,Arsenal Colombia,N/A,-74.0691,4.6506
bar,Bogota Beer Company La Bodega,N/A,-74.0666,4.6586
bar,N/A,N/A,-74.0635,4.6509
bar,N/A,N/A,-74.0597,4.6563
bar,Mitho Cafe,N/A,-74.0694,4.5991
bar,The Doors,N/A,-74.0698,4.6006
bar,Tranvia Galeria,N/A,-74.0691,4.6004
bar,N/A,N/A,-74.0688,4.599
bar,N/A,N/A,-74.0694,4.5988
bar,Mi Nueva Milan,N/A,-74.0717,4.6334
bar,Bar La Playita,N/A,-74.0221,4.737
bar,The Bar,N/A,-74.0372,4.7627
bar,Bolirana Bar,N/A,-74.0371,4.7621
bar,Cigarrería Bar Especial Express,N/A,-74.0465,4.745
bar,Disco Jaguar,N/A,-74.0613,4.6446
bar,Lexus,N/A,-74.0637,4.6512
bar,Le Monde,N/A,-74.0607,4.6608
bar,N/A,N/A,-74.0701,4.628
bar,BBC,N/A,-74.0605,4.6606
bar,El Bembe Salsa Revolucion,N/A,-74.0688,4.6142
bar,Nick Havana,N/A,-74.0483,4.7015
bar,Bar Pikikos,N/A,-74.0905,4.6788
bar,MORRIS,N/A,-74.1263,4.5834
bar,GLOBELL,N/A,-74.1263,4.5834
bar,WANDS,N/A,-74.1263,4.5834
bar,Matias Bar,N/A,-74.0916,4.6845
bar,Black maria,N/A,-74.0693,4.6327
bar,N/A,N/A,-74.1145,4.619
bar,Tr3s Copas,N/A,-74.0307,4.7246
bar,FDS,N/A,-74.1657,4.6341
bar,La Tienda,N/A,-74.1252,4.7194
bar,N/A,N/A,-74.103,4.7404
bar,N/A,N/A,-74.1027,4.7403
bar,N/A,N/A,-74.1028,4.7399
bar,la frontera,N/A,-74.1097,4.6136
bar,N/A,N/A,-74.1035,4.74
bar,Bar la esquina,N/A,-74.1935,4.6053
bar,cigarreria tovar,N/A,-74.1212,4.5995
bar,Donde fabi,N/A,-74.1241,4.5971
bar,Bar,N/A,-74.1938,4.6062
bar,pizza bar,N/A,-74.0728,4.6314
bar,Musa Bar,N/A,-74.0722,4.6332
bar,ROCKOLA AND DRAFT,N/A,-74.0738,4.6335
bar,Bar Corporación,N/A,-74.0786,4.6706
bar,La Estacion,N/A,-74.0776,4.6668
bar,Corona,N/A,-74.0553,4.6704
bar,Bogotá Beer Company,N/A,-74.0952,4.6724
bar,Bar Sebas,N/A,-74.0956,4.6777
bar,Beer Master Bar,N/A,-74.0985,4.6753
bar,Maracana Bar,N/A,-74.0969,4.6761
bar,Bar La Negra,N/A,-74.0682,4.6697
bar,Bar Rackela Eden Hall,N/A,-74.0683,4.67
bar,Bar Juank,N/A,-74.1174,4.6906
bar,Pcaific Club CAV,N/A,-74.0695,4.7185
bar,Vlady Karaoke Bar,N/A,-74.1062,4.6704
bar,Bavara Café y Bar,N/A,-74.0823,4.6307
bar,La Jungla,N/A,-74.0562,4.7158
bar,La Chuchis,N/A,-74.1128,4.697
bar,Zarek Cigarrería Bar,N/A,-74.0926,4.7037
bar,El Sabor de mi Pueblo,N/A,-74.0738,4.6598
bar,Los Pinos D'J,N/A,-74.0293,4.7399
bar,Blue Label Bar,N/A,-74.0966,4.6889
bar,La Barca VIP,N/A,-74.0967,4.6888
bar,Manaos,N/A,-74.0967,4.6889
bar,San Alejo Viejoteca,N/A,-74.0975,4.6894
bar,Mora Mora,N/A,-74.0976,4.6895
bar,Océanos,N/A,-74.0994,4.691
bar,Tattos Bar,N/A,-74.0996,4.6911
bar,Bogotá Billares,N/A,-74.101,4.6923
bar,La Columna Bar,N/A,-74.1038,4.6978
bar,El Rincon Guavateño,N/A,-74.0945,4.6968
bar,Bar la Clave 75,N/A,-74.1001,4.6964
bar,la Bonita,N/A,-74.0979,4.6985
bar,Tropezon Bar,N/A,-74.0988,4.6973
bar,Bogota Beer Company,N/A,-74.0692,4.698
bar,Bar la Amistad,N/A,-74.1001,4.7089
bar,Pool Bar,N/A,-74.0448,4.7313
bar,Club de Billares Bumangues,N/A,-74.0561,4.7152
bar,Bar Ruta 128,N/A,-74.0542,4.7141
bar,Contreras,N/A,-74.1572,4.6961
bar,Donde Daniel,N/A,-74.1067,4.7047
bar,Bar Punto Rojo,N/A,-74.1149,4.6953
bar,Video Bar Donde Liz,N/A,-74.1041,4.6891
bar,Camaleón,N/A,-74.1024,4.6913
bar,N/A,N/A,-74.0994,4.6845
bar,El Soler,N/A,-74.0276,4.7648
bar,El Campin,N/A,-74.0646,4.6469
bar,Abbot Rock Bar,N/A,-74.0636,4.6522
bar,Bar La 15,N/A,-74.0659,4.6497
bar,Taberna Bar Nico,N/A,-74.0641,4.6489
bar,La Vecy,N/A,-74.0631,4.6447
bar,La Esquina Bar,N/A,-74.0625,4.6454
bar,La Jungla,N/A,-74.0809,4.6781
bar,El Taller,N/A,-74.0626,4.6461
bar,Terraza 60,N/A,-74.0629,4.6462
bar,Tri3ar,N/A,-74.0633,4.6464
bar,Bar y Licores,N/A,-74.0682,4.6223
bar,Inferno Bar,N/A,-74.0683,4.6217
bar,Pinarin jardin pedagogico imelda directora,N/A,-74.0843,4.7495
bar,Ibiza,N/A,-74.126,4.6966
bar,Cafeteria Bar,N/A,-74.0765,4.6435
bar,Bar Angy,N/A,-74.1246,4.7009
bar,Taberna Bar los Caballitos,N/A,-74.1321,4.7007
bar,Atelier,N/A,-74.1172,4.7042
bar,Sheriff Taberna,N/A,-74.1171,4.7041
bar,Blue Bay,N/A,-74.116,4.7031
bar,Cafe Parrilla Bar,N/A,-74.1155,4.7027
bar,Aguaymant,N/A,-74.1156,4.7028
bar,Disco Bar,N/A,-74.1153,4.7026
bar,Kaluha Bar,N/A,-74.1151,4.7023
bar,Barrockola V8,N/A,-74.1148,4.7021
bar,Tercer Tiempo,N/A,-74.1166,4.7022
bar,Villas Bar,N/A,-74.1211,4.7194
bar,La Nevade Sabanera,N/A,-74.1182,4.7163
bar,La Cava,N/A,-74.1232,4.7188
bar,Hogar wiliam,N/A,-74.0862,4.7236
bar,Mundo feliz de los niños oriental,N/A,-74.0983,4.7374
bar,Terraza Bar,N/A,-74.072,4.6058
bar,Punto Paisa,N/A,-74.1073,4.5883
bar,El Pepino bar,N/A,-74.0536,4.6722
bar,Willo's Rumba Bar,N/A,-74.0981,4.5724
bar,Bar la Almendra,N/A,-74.075,4.6132
bar,Bar el Trebol,N/A,-74.0752,4.6136
bar,N/A,N/A,-74.0745,4.6129
bar,Bar la Mona de la 24,N/A,-74.0744,4.6128
bar,Licorera Bar La 50,N/A,-74.1132,4.618
bar,Matik Matik,N/A,-74.0612,4.653
bar,Licor y menta,N/A,-74.1084,4.5794
bar,Cigarria el Malagueño,N/A,-74.0862,4.5988
bar,Video Bar,N/A,-74.09,4.5937
bar,Bar Santander,N/A,-74.0762,4.6135
bar,Bar JDG,N/A,-74.0839,4.5419
bar,La Ultima y Nos Vamos,N/A,-74.0857,4.5987
bar,El Portal,N/A,-74.0973,4.5665
bar,N/A,N/A,-74.1035,4.5896
bar,Punto 26,N/A,-74.0836,4.6306
bar,Aguila La Isla,N/A,-74.1029,4.5664
bar,Pa Latinos,N/A,-74.0997,4.5843
bar,Terraza Boulevar,N/A,-74.1001,4.5847
bar,El Pachuno,N/A,-74.097,4.5547
bar,La Fonda Del Camino,N/A,-74.0621,4.6516
bar,Bar Tres Esquinas,N/A,-74.0934,4.5479
bar,Bar el Paraiso Aquilar,N/A,-74.097,4.5545
bar,Star's Box,N/A,-74.0513,4.6918
bar,Bar Bolitejo,N/A,-74.1389,4.5516
bar,Karaoke,N/A,-74.0975,4.6247
bar,Bar Rockola,N/A,-74.1045,4.6688
bar,Mr. Monkey,N/A,-74.1046,4.6688
bar,Ibiza Terraza,N/A,-74.1046,4.6688
bar,Shots 53,N/A,-74.1046,4.6689
bar,Billares Modelía,N/A,-74.1234,4.6687
bar,Copacabana,N/A,-74.1175,4.6364
bar,La Quinta Imperial,N/A,-74.135,4.6277
bar,Monte Video Bar,N/A,-74.1133,4.6427
bar,La Oficina Paisa Bar,N/A,-74.1373,4.6108
bar,Mi Baco,N/A,-74.1224,4.6505
bar,GH Bar,N/A,-74.1326,4.6108
bar,Anggelus,N/A,-74.1354,4.6144
bar,Billares El Gran Paris,N/A,-74.1356,4.6145
bar,Karoake Plaza Bar,N/A,-74.1356,4.6146
bar,Bianka,N/A,-74.1173,4.6231
bar,Hard Beer,N/A,-74.1186,4.621
bar,Samoa Bar,N/A,-74.1188,4.6208
bar,Depósito de Cerveza San Rafael,N/A,-74.1124,4.6215
bar,Fusion Bar and Disco,N/A,-74.1376,4.619
bar,Zona VIP,N/A,-74.1146,4.6233
bar,Sunset Cafe Bar,N/A,-74.1375,4.6195
bar,Canterbury Cafe Bar,N/A,-74.1375,4.6198
bar,Martina Bar,N/A,-74.1375,4.6201
bar,J.R.K. Bar Social,N/A,-74.1132,4.6117
bar,Bombillo Verde,N/A,-74.112,4.6232
bar,Copacabana,N/A,-74.1007,4.5977
bar,Los del Valle,N/A,-74.1387,4.5961
bar,Iron Horse,N/A,-74.1483,4.6332
bar,Bar Ginebra Pub,N/A,-74.1605,4.6416
bar,Bar el Apero,N/A,-74.1385,4.6123
bar,BBC Cerverceria,N/A,-74.0587,4.7534
bar,Juego Limpio,N/A,-74.1346,4.703
bar,N/A,N/A,-74.0504,4.6917
bar,shy,N/A,-74.1261,4.579
bar,N/A,N/A,-74.1135,4.7124
bar,BBC,N/A,-74.0567,4.6487
bar,Bogotá Beer Company La Candelaria,N/A,-74.0706,4.6001
bar,Casa de Manu,N/A,-74.0707,4.6003
bar,BBC La Bodega,N/A,-74.0491,4.7051
bar,Beer bar,N/A,-74.0308,4.7377
bar,john,N/A,-74.0903,4.6974
bar,N/A,N/A,-74.0705,4.6032
bar,La Bodega - Bogota Beer Company,N/A,-74.0831,4.669
bar,Black sheep,N/A,-74.0542,4.6684
bar,N/A,N/A,-74.0707,4.6032
bar,Tropical Drinks,N/A,-74.0439,4.7497
bar,District Music Lab,N/A,-74.0462,4.6977
bar,N/A,N/A,-74.07,4.6328
bar,Rockola Bar Daniela,N/A,-74.1074,4.6722
bar,Van Der,N/A,-74.071,4.6242
bar,La 40,N/A,-74.0704,4.6292
bar,El Bukowski,N/A,-74.0712,4.6229
bar,Donde Mao,N/A,-74.072,4.6405
bar,Full Party Halloween 2018 maldita sea,N/A,-74.0606,4.6555
bar,Teusa Bar,N/A,-74.0732,4.6173
bar,UVV,N/A,-74.0713,4.6207
bar,Prelibato,N/A,-74.0818,4.6275
bar,The Shots Lab,N/A,-74.0729,4.6336
bar,Rockollina,N/A,-74.0721,4.6335
bar,Bar Billar Tayrona,N/A,-74.0828,4.6172
bar,Billares Paloquemao,N/A,-74.0835,4.6178
bar,Billares,N/A,-74.091,4.6968
bar,Guarin,N/A,-74.0918,4.6972
bar,Okinawa,N/A,-74.1062,4.6561
bar,N/A,N/A,-74.0916,4.7252
bar,LxF,N/A,-74.0538,4.668
bar,N/A,N/A,-74.0624,4.6459
bar,N/A,N/A,-74.0625,4.6462
bar,N/A,N/A,-74.0627,4.6471
bar,N/A,N/A,-74.0776,4.6169
bar,Fábrica,N/A,-74.0723,4.6335
bar,Cheers,N/A,-74.0725,4.6335
bar,Don Honorio,N/A,-74.0768,4.6234
bar,Bar Los Pubertos,N/A,-74.0681,4.6291
bar,Daniela de la 19,N/A,-74.0734,4.6068
bar,Tropical Bar,N/A,-74.0734,4.6073
bar,vista Corona,N/A,-74.0487,4.6762
bar,N/A,N/A,-74.0523,4.7225
bar,N/A,N/A,-74.0527,4.7225
bar,Bogotá Beer Company - LA BODEGA,N/A,-74.0663,4.6309
bar,19-25,N/A,-74.0617,4.638
bar,AMNESIA,N/A,-74.1446,4.5988
bar,CINDAMING,N/A,-74.1446,4.5987
bar,N/A,N/A,-74.0898,4.5871
bar,Colombia beer,N/A,-74.0694,4.6036
bar,BBC cerveceria,N/A,-74.1299,4.6448
bar,El Goce Pagano,N/A,-74.0651,4.6034
bar,Bogotá Béer Company,N/A,-74.0664,4.614
bar,Brinca Brinca,N/A,-74.0544,4.6699
bar,Cervecería Lateral Candelaria,N/A,-74.0721,4.5999
bar,BBC (Bogota Beer Company),N/A,-74.0761,4.5946
bar,District Sports Bar,N/A,-74.0488,4.6779
bar,BBC Bodega,N/A,-74.0481,4.747
bar,sound city,N/A,-74.0982,4.7471
bar,tabu,N/A,-74.0981,4.7472
bar,orange,N/A,-74.0981,4.7472
bar,el condado sport bar,N/A,-74.0981,4.7473
bar,mulata,N/A,-74.0981,4.7473
bar,imperio,N/A,-74.098,4.7474
bar,estigma,N/A,-74.0979,4.7473
bar,keops,N/A,-74.098,4.7472
bar,bar salsa,N/A,-74.0979,4.7473
bar,D duxe,N/A,-74.098,4.7472
bar,video tk de mao,N/A,-74.098,4.7471
bar,santa pola,N/A,-74.0981,4.7469
bar,el santo,N/A,-74.0981,4.7469
bar,nipeggio,N/A,-74.098,4.7471
bar,La Morena Bar,N/A,-74.1298,4.6858
bar,Garage - gemelos,N/A,-74.0989,4.5861
bar,N/A,N/A,-74.1684,4.5798
bar,Bogota beer Company,N/A,-74.0569,4.6859
bar,N/A,N/A,-74.085,4.5521
bar,Licorera La Pandemia,friture,-74.1327,4.7204
bar,N/A,N/A,-74.0873,4.5414
bar,Pokeroon,N/A,-74.1238,4.7431
bar,LUMIUS,N/A,-74.1251,4.7428
bar,Ibhiza,N/A,-74.1246,4.7432
bar,N/A,N/A,-74.174,4.5737
bar,N/A,N/A,-74.1694,4.5729
bar,N/A,N/A,-74.1796,4.582
bar,N/A,N/A,-74.1798,4.5834
bar,N/A,N/A,-74.1795,4.582
bar,Smoking Molly,N/A,-74.0673,4.6158
bar,Sinaloa,N/A,-74.0565,4.7253
bar,BBC,N/A,-74.0297,4.7168
bar,La Mariana,N/A,-74.0771,4.6521
bar,Bogotá Beer Company,N/A,-74.0442,4.6963
bar,Billares Country club,N/A,-74.0569,4.667
bar,Club Nocturno Dubay | Whiskería | Amanecedero,N/A,-74.0642,4.6541
bar,Bar La Caquereña,N/A,-74.0986,4.5895
bar,música vivo jazz,N/A,-74.0723,4.6334
bar,Billar Berlín,N/A,-74.0779,4.6345
cafe,Bloque 13,N/A,-74.1578,4.5791
cafe,N/A,N/A,-74.0326,4.6851
cafe,Oma,N/A,-74.0379,4.7197
cafe,Café OMA,coffee_shop,-74.0493,4.7002
cafe,N/A,N/A,-74.1556,4.6252
cafe,Juan Valdez,N/A,-74.063,4.6397
cafe,La Cafeteria,N/A,-74.0629,4.6403
cafe,N/A,N/A,-74.0852,4.6321
cafe,N/A,N/A,-74.0919,4.6579
cafe,Cafetería J.S,N/A,-74.0688,4.6304
cafe,Barra Café,N/A,-74.0657,4.6289
cafe,N/A,N/A,-74.1802,4.6142
cafe,oma,N/A,-74.0655,4.6288
cafe,N/A,N/A,-74.0656,4.6287
cafe,heladeria parque artesanal,N/A,-74.0687,4.6254
cafe,Cafeteria N°1,N/A,-74.1292,4.5828
cafe,Cafeteria N°2,N/A,-74.1292,4.5825
cafe,Salon de onces Migue,N/A,-74.0674,4.6323
cafe,Fruteria Milenios,N/A,-74.0664,4.631
cafe,Chelos,N/A,-74.0674,4.6323
cafe,Cafe Express,N/A,-74.1352,4.5957
cafe,Madeleine,N/A,-74.0676,4.6261
cafe,Panaderia Pasteleria Cafateria Fuente Dorada IH,N/A,-74.1322,4.6271
cafe,N/A,N/A,-74.1037,4.5872
cafe,N/A,N/A,-74.1033,4.5877
cafe,bbc,N/A,-74.0686,4.6254
cafe,coffi-pan,N/A,-74.1214,4.7257
cafe,Cafeteria La Sultana,N/A,-74.069,4.6269
cafe,Distrito Café,N/A,-74.069,4.627
cafe,SAHEA,N/A,-74.1331,4.6145
cafe,N/A,N/A,-74.0607,4.6312
cafe,Juan Valdez Café,coffee_shop,-74.0476,4.6761
cafe,Salon de Té F&W,N/A,-74.0917,4.6505
cafe,Juan Valdéz Café,N/A,-74.0662,4.6327
cafe,ALASKA,N/A,-74.1714,4.6453
cafe,café Central la 51,N/A,-74.0669,4.6389
cafe,tienda de pacheco,N/A,-74.0831,4.5641
cafe,N/A,N/A,-74.0682,4.6398
cafe,Las delicias del valle,regional,-74.0658,4.635
cafe,Manechos,regional,-74.093,4.5985
cafe,Musica y café Don toño,N/A,-74.064,4.6379
cafe,Juan Valdez,N/A,-74.1207,4.6651
cafe,El Café de la Luna Lela,N/A,-74.0755,4.6294
cafe,N/A,N/A,-74.0536,4.754
cafe,Quipile Café,coffee_shop,-74.0755,4.633
cafe,Magisterio café,N/A,-74.0745,4.6261
cafe,Picanha café,N/A,-74.0748,4.6267
cafe,Central USBBog,N/A,-74.0301,4.7514
cafe,Maglia Rosa,N/A,-74.0624,4.65
cafe,Cafe Bar,N/A,-74.0625,4.6499
cafe,Pan Pa' Ya!,N/A,-74.0581,4.7071
cafe,Brook Street 111,burger,-74.0664,4.6053
cafe,Gilmar express,N/A,-74.0636,4.7439
cafe,El Viejo,N/A,-74.083,4.6371
cafe,Fruteria,N/A,-74.0679,4.6367
cafe,Cafeteria,N/A,-74.0678,4.6368
cafe,Cafeteria Chepe,N/A,-74.0677,4.6367
cafe,N/A,N/A,-74.0647,4.6274
cafe,bocatos,heladeria,-74.105,4.6846
cafe,ROSITA Y SUS DELFINES,N/A,-74.067,4.6056
cafe,Café OMA,coffee_shop,-74.0672,4.606
cafe,Cafe Oma Terraza Universidad Jorge Tadeo Lozano,N/A,-74.0687,4.607
cafe,El cometa,bread,-74.0715,4.6082
cafe,Pastelería Florida,coffee_shop,-74.0709,4.6073
cafe,Cafetería y Panadería Rosita y sus delfines-Vía Baloto,coffee_shop,-74.067,4.6057
cafe,Oma,coffee_shop,-74.067,4.6061
cafe,Oma Cafe,N/A,-74.0687,4.6073
cafe,N/A,N/A,-74.1118,4.6581
cafe,La Conejera,ice_cream,-74.0633,4.6288
cafe,TOSTAO,panaderia,-74.0724,4.6448
cafe,Tostao,coffee_shop,-74.0645,4.6462
cafe,Oma,N/A,-74.0489,4.6824
cafe,N/A,N/A,-74.0357,4.7268
cafe,El marinero,N/A,-74.0438,4.7615
cafe,On the run,N/A,-74.0424,4.7718
cafe,Juan Valdez Café,coffee_shop,-74.0526,4.6668
cafe,Autopan,N/A,-74.0692,4.6979
cafe,Cafe internet,N/A,-74.0444,4.7387
cafe,Pan pa' ya!,N/A,-74.0409,4.729
cafe,Festytortas,N/A,-74.1003,4.6911
cafe,Maryos,N/A,-74.0715,4.6327
cafe,Milano,N/A,-74.0448,4.733
cafe,Las delicias,N/A,-74.1585,4.6139
cafe,Din Don Pan,coffee_shop,-74.1236,4.599
cafe,Super Cholao,ice_cream,-74.1244,4.5985
cafe,Velvet Rolls,N/A,-74.125,4.5983
cafe,Cafeteria JP,N/A,-74.07,4.6313
cafe,COLOMBIAN BURGUER,N/A,-74.122,4.7174
cafe,panaderia y cafeteria fanny,N/A,-74.0687,4.6671
cafe,N/A,N/A,-74.068,4.6668
cafe,lili,N/A,-74.1228,4.5984
cafe,las tres jjj,N/A,-74.1226,4.5984
cafe,Universal Express,N/A,-74.0633,4.6618
cafe,Natis'D,N/A,-74.0711,4.6988
cafe,N/A,N/A,-74.1016,4.643
cafe,La Tienda Cervecera,N/A,-74.1067,4.6701
cafe,Tosta'o,N/A,-74.1058,4.67
cafe,Tostao',N/A,-74.0682,4.719
cafe,Pistoria,N/A,-74.092,4.7009
cafe,Pan y Ponke,N/A,-74.0676,4.7204
cafe,Platos A La Chifa,chinese,-74.0632,4.673
cafe,Antika Cafe,N/A,-74.0593,4.6882
cafe,Santi,N/A,-74.0975,4.6992
cafe,Pasteleria & Cafe,N/A,-74.0576,4.6918
cafe,El Cafe Tal,N/A,-74.0576,4.692
cafe,Rov Cafe,N/A,-74.0617,4.6841
cafe,Tostao',N/A,-74.0473,4.7183
cafe,Fruteria,N/A,-74.0908,4.6435
cafe,Los Nogales,N/A,-74.0936,4.6477
cafe,Cigarreria el Chato Barrera,N/A,-74.0936,4.6477
cafe,Cafeteria Tao,N/A,-74.0987,4.7143
cafe,Tastaó,N/A,-74.0584,4.6835
cafe,Coffi-pan,N/A,-74.0625,4.6911
cafe,Alondra,N/A,-74.0853,4.7353
cafe,Delicias,N/A,-74.0629,4.6464
cafe,Delis,N/A,-74.0753,4.6397
cafe,Malia Café,N/A,-74.0697,4.5961
cafe,Surti - Cheveere,N/A,-74.0726,4.5803
cafe,Tostao Café and Pan,N/A,-74.1241,4.5758
cafe,Cafeteria y Cigarreria Natty,N/A,-74.1147,4.5764
cafe,Fresa Crema,coffee_shop,-74.1092,4.6152
cafe,Cafeteria La TIA,N/A,-74.07,4.6273
cafe,Cafeteria El Sol,N/A,-74.0781,4.6122
cafe,Cafetería Sol y Soldas,N/A,-74.0788,4.6108
cafe,Cafetería y Fruteria El Reposo,N/A,-74.0789,4.6111
cafe,Cafetería,N/A,-74.0848,4.5986
cafe,Cafe Española,N/A,-74.0877,4.6043
cafe,Aroma De Cafe,N/A,-74.0973,4.5666
cafe,Tostao’,coffee_shop,-74.0891,4.6315
cafe,Cafetería Charry,N/A,-74.0917,4.5897
cafe,Frutería y Cafetería Thiago,N/A,-74.0923,4.5901
cafe,Panadería y Cafatería,N/A,-74.096,4.591
cafe,Panadería Cafateriía Casanare,N/A,-74.0969,4.5899
cafe,Cafeteria El Buen Sabor De Nubi,N/A,-74.0971,4.5896
cafe,Cafe Bocados,N/A,-74.0864,4.5971
cafe,Cafatería Luz Angela,N/A,-74.0901,4.5915
cafe,N/A,N/A,-74.1004,4.585
cafe,Cafatería Donde Abundio,N/A,-74.1025,4.5879
cafe,Deli Express Cafateria,N/A,-74.1,4.5868
cafe,Cafetería Comidas Rapidas,N/A,-74.0986,4.5852
cafe,Ciber Cafe Express,N/A,-74.1071,4.6338
cafe,Pasteleria Barsa Express,N/A,-74.1514,4.5703
cafe,Bendito,N/A,-74.0525,4.6849
cafe,Yobipan Panaderia Cafateria,N/A,-74.1477,4.5659
cafe,Cafe Bono Cafateria,N/A,-74.1195,4.6665
cafe,Multipan.S Cafateria,N/A,-74.1326,4.6163
cafe,Pan Dorado,N/A,-74.1331,4.6177
cafe,Panadería y Cafatería Los Fundadores,N/A,-74.1321,4.6158
cafe,La Villentana,N/A,-74.138,4.6125
cafe,Pan Cafeteria,N/A,-74.1207,4.6263
cafe,Panaderia y Cafateria La Pradera,N/A,-74.12,4.6259
cafe,Pan Camelia,N/A,-74.1204,4.625
cafe,Gustipan,N/A,-74.121,4.6238
cafe,Cafeteriía La Huella,N/A,-74.1206,4.6265
cafe,Terranova,N/A,-74.1282,4.618
cafe,Panadería La 50,N/A,-74.1291,4.606
cafe,La Gran Mistral,N/A,-74.14,4.605
cafe,El Trigal,N/A,-74.1385,4.6024
cafe,"Cafeteria ""Yelus""",N/A,-74.1422,4.6515
cafe,N/A,N/A,-74.0645,4.6244
cafe,Empanadas,N/A,-74.1188,4.6672
cafe,Tostao',N/A,-74.1008,4.5989
cafe,Pasteleria Santander,N/A,-74.1063,4.6703
cafe,Oma,N/A,-74.1154,4.7011
cafe,Meridianos Pan y Cafe,N/A,-74.1349,4.6426
cafe,Pan Suizo,N/A,-74.1182,4.6577
cafe,Picos y Cafe,N/A,-74.0871,4.6503
cafe,Juan Valdés,N/A,-74.0648,4.7281
cafe,Monserrate,N/A,-74.1401,4.711
cafe,Roots Café,"coffee_shop;juice;sandwiches;beer",-74.0625,4.6432
cafe,Caney del Tamarindo,N/A,-74.0688,4.6295
cafe,Oma,N/A,-74.0805,4.6836
cafe,LA 50,N/A,-74.067,4.6377
cafe,Terranova,N/A,-74.1281,4.6179
cafe,Coffe express,N/A,-74.0682,4.6396
cafe,N/A,N/A,-74.1023,4.5718
cafe,Donuts Donuts,N/A,-74.0788,4.6305
cafe,"La Távola Santa, Cinema & Café Jazz","coffee_shop;sandwich;mexican;regional",-74.0703,4.6421
cafe,Merkavá Kafé,N/A,-74.0683,4.64
cafe,PAAMI Brownies y Pastelería,N/A,-74.0715,4.7189
cafe,N/A,N/A,-74.0322,4.7503
cafe,Coffe  La Salle,N/A,-74.0328,4.7505
cafe,Café de la línea,N/A,-74.07,4.624
cafe,La vaquerita,N/A,-74.0702,4.6236
cafe,Sterling,N/A,-74.1189,4.7197
cafe,Cafeteria,N/A,-74.0994,4.688
cafe,Cafeteria Hotel,N/A,-74.0709,4.6263
cafe,N/A,N/A,-74.0725,4.6258
cafe,McCafé,coffee_shop,-74.1087,4.6529
cafe,WilPan,N/A,-74.1212,4.5219
cafe,Oma,"coffee;bakery;juice",-74.0629,4.6265
cafe,Limbapan,N/A,-74.0693,4.6881
cafe,Cafetería,N/A,-74.0447,4.7833
cafe,Gina Pan,"coffee_shop;regional",-74.15,4.6746
cafe,Diana,N/A,-74.1503,4.6744
cafe,N/A,N/A,-74.0644,4.7582
cafe,N/A,N/A,-74.086,4.5518
cafe,N/A,N/A,-74.0855,4.552
cafe,On the Run,N/A,-74.1029,4.6337
cafe,Café OMA,coffee_shop,-74.0538,4.6679
cafe,Wilsón,N/A,-74.0679,4.723
cafe,N/A,N/A,-74.0614,4.6644
cafe,Tostao’,coffee_shop,-74.0418,4.7236
cafe,Juan Valdez,coffee_shop,-74.0561,4.6571
cafe,N/A,N/A,-74.099,4.507
cafe,N/A,N/A,-74.1014,4.6662
cafe,Cafetería Bloque C,N/A,-74.101,4.665
cafe,Doña Blanca,N/A,-74.0662,4.6033
cafe,N/A,N/A,-74.0739,4.7251
cafe,Juan Valdez Café,coffee_shop,-74.1004,4.6456
cafe,Cafetería Olor a Café,N/A,-74.1019,4.6651
cafe,Salzig,N/A,-74.0663,4.6937
cafe,Pan de Oro,N/A,-74.126,4.6662
cafe,Bogotá Store Café,coffee_shop,-74.0675,4.602
cafe,Oma,N/A,-74.0725,4.6035
cafe,Panadería Arlequin,N/A,-74.0748,4.6302
cafe,La Redada Miscelánea Cultural,N/A,-74.0682,4.6009
cafe,N/A,N/A,-74.0516,4.7559
cafe,N/A,N/A,-74.0545,4.7543
cafe,N/A,N/A,-74.0507,4.7559
cafe,Oma,N/A,-74.0578,4.657
cafe,OMA,N/A,-74.0668,4.631
cafe,Café Recoleta,Café_de_orígen,-74.0688,4.6091
cafe,San Cafe,international,-74.075,4.6351
cafe,Brot,coffee_shop,-74.0506,4.6631
cafe,N/A,N/A,-74.097,4.5684
cafe,N/A,N/A,-74.0626,4.6273
cafe,N/A,N/A,-74.0632,4.6281
cafe,N/A,N/A,-74.0627,4.6288
cafe,N/A,N/A,-74.0639,4.6307
cafe,Tostao',N/A,-74.0824,4.6359
cafe,Las Cafetales,N/A,-74.0592,4.6717
cafe,Rock al Horno,N/A,-74.0706,4.6001
cafe,Hibrido,N/A,-74.07,4.6005
cafe,Cafe del sol,N/A,-74.0706,4.599
cafe,Cafe OMA,coffee_shop,-74.0968,4.7482
cafe,Panadería y Cafeteria,N/A,-74.115,4.504
cafe,Panadería,N/A,-74.1151,4.505
cafe,Tostao,cafeteria,-74.0602,4.6467
cafe,Oma Calle 62,coffee_shop,-74.0575,4.6453
cafe,El Cafetín de la Soledad,spanish,-74.0747,4.6326
cafe,Tostao’,coffee_shop,-74.0346,4.7414
cafe,Mimo's,ice_cream,-74.0477,4.6983
cafe,Juan Valdez Cafe,N/A,-74.0478,4.6978
cafe,amínta,pasteleria,-74.0478,4.6978
cafe,Doña DIcha,N/A,-74.0329,4.6975
cafe,El Deseo,coffee_shop,-74.0466,4.6785
cafe,Diletto,N/A,-74.0482,4.6802
cafe,Cafe Verona,N/A,-74.0603,4.6552
cafe,Juan Valdez Café,coffee_shop,-74.0557,4.6661
cafe,Oma,N/A,-74.058,4.6636
cafe,OMA,N/A,-74.063,4.6277
cafe,N/A,N/A,-74.0651,4.6266
cafe,N/A,N/A,-74.0636,4.6268
cafe,N/A,N/A,-74.065,4.627
cafe,N/A,N/A,-74.0644,4.628
cafe,N/A,N/A,-74.0641,4.6287
cafe,Cafeteria Geologia,N/A,-74.0856,4.6337
cafe,Panadería Natys,N/A,-74.1657,4.6449
cafe,N/A,N/A,-74.0354,4.7187
cafe,Juan Valdéz Café,N/A,-74.0381,4.7201
cafe,Cafeteria Central,N/A,-74.0652,4.6008
cafe,Café Oma,N/A,-74.066,4.6007
cafe,Café Kaldivia,N/A,-74.0645,4.6016
cafe,Las Monas,N/A,-74.0653,4.6019
cafe,La Frutería,N/A,-74.065,4.6003
cafe,Café Oma,N/A,-74.0656,4.6024
cafe,Café Oma,N/A,-74.0642,4.6017
cafe,Café Oma,N/A,-74.0645,4.6028
cafe,Cascabel,N/A,-74.0647,4.6028
cafe,Cascabel,N/A,-74.0664,4.6026
cafe,GRATTO,N/A,-74.0646,4.6027
cafe,Oma,N/A,-74.0628,4.6
cafe,El gato gris,regional,-74.0696,4.597
cafe,Diner,N/A,-74.0476,4.677
cafe,N/A,N/A,-74.0649,4.6438
cafe,Cafetería El Cotidiano,N/A,-74.0641,4.6299
cafe,Subway Basicas,N/A,-74.0643,4.6293
cafe,Lachoco Latera,Chocolate_shop,-74.0666,4.613
cafe,Dunkin' Donuts,donut,-74.0632,4.6504
cafe,Juan Valdez - Skandia,coffee_shop,-74.0502,4.696
cafe,Cafetería de Ciencias Humanas,N/A,-74.0839,4.6345
cafe,Dunkin' Donuts,donut,-74.0522,4.6767
cafe,Bitcoin Muffin,international,-74.1201,4.6737
cafe,Árbol del Pan,"sandwich; coffee_shop",-74.0562,4.6488
cafe,Juan Valdez Café,coffee_shop,-74.1412,4.6983
cafe,Autopan,N/A,-74.0401,4.6988
cafe,Juan Valdez,N/A,-74.0701,4.6011
cafe,Panadería Los Hornitos,N/A,-74.0788,4.6386
cafe,Cafeteria Sabrosuras,N/A,-74.0849,4.6318
cafe,Cafeteria y Panaderia Isabella,N/A,-74.0816,4.6308
cafe,Postres Magolita,ice_cream,-74.0895,4.6333
cafe,Oma,N/A,-74.0342,4.7128
cafe,Panadería,N/A,-74.1641,4.6462
cafe,Juan Valdez Origenes,N/A,-74.0559,4.6523
cafe,Varietale,N/A,-74.0664,4.6288
cafe,Fruteria Tropical,N/A,-74.1085,4.7428
cafe,N/A,N/A,-74.1365,4.5967
cafe,Rustico cafe bar,N/A,-74.0655,4.6317
cafe,Cigarreria y Cafetería Variedade,N/A,-74.0688,4.6278
cafe,wimpys,N/A,-74.107,4.7448
cafe,N/A,N/A,-74.1561,4.6055
cafe,N/A,N/A,-74.1557,4.6051
cafe,GATO AGO-GO,N/A,-74.0641,4.6322
cafe,Malandrines Bar Cafe,N/A,-74.0682,4.6328
cafe,Donde Lucho,N/A,-74.0687,4.6296
cafe,Donde Juancho,N/A,-74.0687,4.6297
cafe,Cigarreria y Cafeteria La 44,N/A,-74.0683,4.6319
cafe,El combo,N/A,-74.1553,4.5998
cafe,Dulce tentación,Postres,-74.068,4.6253
cafe,Bocado de Reina,N/A,-74.067,4.6299
cafe,La 37,N/A,-74.068,4.6251
cafe,cafeteria los tios,N/A,-74.1484,4.6758
cafe,Dulce jesus mio,N/A,-74.0678,4.6259
cafe,Kaldivia cafe,N/A,-74.0678,4.626
cafe,N/A,N/A,-74.1796,4.6336
cafe,N/A,N/A,-74.0504,4.7506
cafe,Panadería FeliPan,N/A,-74.1028,4.7571
cafe,Estacion Café 13,N/A,-74.0671,4.6262
cafe,Nudols,N/A,-74.067,4.6269
cafe,Bonmarco,regional,-74.1037,4.5872
cafe,Cigarreria Emannuel,N/A,-74.1033,4.5877
cafe,Obleas Don Angel,N/A,-74.1034,4.5878
cafe,Bonmarco,N/A,-74.1033,4.5883
cafe,N/A,N/A,-74.1044,4.5876
cafe,N/A,N/A,-74.1051,4.586
cafe,Cigarreria Cava Express,N/A,-74.0488,4.7574
cafe,Panadería,N/A,-74.0984,4.7527
cafe,Cafeteria,N/A,-74.1355,4.5976
cafe,Delicias del Valle,N/A,-74.1693,4.6187
cafe,Las Delicias,N/A,-74.0965,4.6753
cafe,El Merendero,N/A,-74.0968,4.6756
cafe,Los Nogales,N/A,-74.0966,4.6766
cafe,Lorent's,N/A,-74.0961,4.6766
cafe,Coffee Room,N/A,-74.0494,4.7248
cafe,Dubai Express,N/A,-74.0784,4.6322
cafe,Auto servicio Express,N/A,-74.1229,4.6212
cafe,N/A,N/A,-74.1545,4.6381
cafe,N/A,kebab,-74.0758,4.6002
cafe,Panadería de la cuarta,N/A,-74.0761,4.5905
cafe,N/A,N/A,-74.1529,4.6362
cafe,Café Cultor,N/A,-74.0565,4.6516
cafe,Dicami,N/A,-74.0799,4.6684
cafe,Romannoti,Pan,-74.1392,4.5945
cafe,Taty,Fruteria_y_cafeteria,-74.1382,4.5943
cafe,Local 2,N/A,-74.0665,4.6325
cafe,N/A,N/A,-74.0669,4.6325
cafe,Cigarreria el triunfo,N/A,-74.1386,4.5934
cafe,"Café Express de la ""U""",N/A,-74.1387,4.5926
cafe,Cigarrería Chucuri,N/A,-74.1388,4.5925
cafe,El changaro de chente,N/A,-74.1392,4.5926
cafe,Panadería y cafetería el gran punto.,N/A,-74.1154,4.7129
cafe,Café OMA,coffee_shop,-74.06,4.6836
cafe,MINOS,N/A,-74.0646,4.6317
cafe,JURGEN,regional,-74.0648,4.6317
cafe,TOLDO AZUL,regional,-74.0648,4.6318
cafe,batidos de la sabana,N/A,-74.0645,4.6316
cafe,Fruti Lili,Fruta,-74.1384,4.5926
cafe,Tienda de Café,N/A,-74.1382,4.5932
cafe,COFFEE & CO,N/A,-74.1383,4.5931
cafe,Aqui toy,Empanadas,-74.1005,4.734
cafe,Filisias,N/A,-74.1005,4.7342
cafe,kaaba,N/A,-74.0651,4.6392
cafe,COFFE BREAK 52,N/A,-74.0649,4.6391
cafe,N/A,N/A,-74.134,4.5951
cafe,Nicol,N/A,-74.0686,4.6399
cafe,"Frutería heladería y cafetería, BANANA SPLIT.",N/A,-74.1157,4.7108
cafe,N/A,N/A,-74.0979,4.7533
cafe,Fruta y Café Express,N/A,-74.0676,4.6387
cafe,la 53,N/A,-74.0671,4.6404
cafe,"dizzy food, coffe & drinks",N/A,-74.0649,4.6324
cafe,La empanada caldense,regional,-74.0664,4.6385
cafe,Salón De Onces Marly,N/A,-74.066,4.6356
cafe,mile y pao,N/A,-74.0988,4.5708
cafe,expresss,N/A,-74.1004,4.5697
cafe,Cafe Pop,N/A,-74.0628,4.6404
cafe,Panes y paneciilos,spanish,-74.1093,4.6539
cafe,barbacoas,N/A,-74.1094,4.6541
cafe,Salon de onces 52,N/A,-74.0654,4.6391
cafe,monalisa,N/A,-74.0848,4.7371
cafe,Nicanor,international,-74.0832,4.6319
cafe,N/A,N/A,-74.1509,4.6816
cafe,Panissimo,regional,-74.0712,4.7049
cafe,Panadería Gurus,regional,-74.1086,4.6738
cafe,Café LATINO,N/A,-74.098,4.714
cafe,De Una Travel Café,N/A,-74.0718,4.5961
cafe,Illy,N/A,-74.0538,4.6727
cafe,Duocafe,N/A,-74.0608,4.6494
cafe,Del Quindio Tienda Cafe,N/A,-74.0606,4.6493
cafe,Cafe Arbol,N/A,-74.0611,4.6493
cafe,Starbucks,coffee_shop,-74.0589,4.6515
cafe,Juan Valdez Café,coffee_shop,-74.0568,4.6861
cafe,Obleas Dany,Obleas,-74.0704,4.7143
cafe,Starbucks,coffee_shop,-74.0313,4.6953
cafe,Camino Del Cafe,N/A,-74.0316,4.6946
cafe,Express way,N/A,-74.0675,4.6347
cafe,N/A,N/A,-74.078,4.6284
cafe,Tostao',N/A,-74.0781,4.6289
cafe,N/A,N/A,-74.0678,4.6346
cafe,Kafeto,N/A,-74.067,4.6345
cafe,Tropicalisimo,N/A,-74.0671,4.6345
cafe,Conect A-2,N/A,-74.0664,4.6342
cafe,Juan Valdez Café,coffee_shop,-74.0325,4.7301
cafe,Cafetería Esquina Huilense,N/A,-74.0656,4.6361
cafe,Cafeteria La Mochila,N/A,-74.0654,4.6361
cafe,Cafatería Sambitto,N/A,-74.0655,4.6361
cafe,Buñuelos,N/A,-74.0656,4.6361
cafe,Antojitos de la 51,N/A,-74.0659,4.6383
cafe,Cafeteria Pizzeria,N/A,-74.0661,4.6384
cafe,Fruteria y cafeteria,N/A,-74.067,4.6294
cafe,Bralir,N/A,-74.0658,4.6373
cafe,BUS1 19,N/A,-74.065,4.6392
cafe,ANDREA,N/A,-74.0655,4.6392
cafe,portal de santa fe,N/A,-74.0954,4.5668
cafe,N/A,N/A,-74.0942,4.5656
cafe,N/A,N/A,-74.0927,4.7447
cafe,N/A,N/A,-74.0928,4.7449
cafe,heladería de la 46,N/A,-74.0645,4.6328
cafe,Jireh,N/A,-74.0664,4.633
cafe,N/A,N/A,-74.0666,4.6321
cafe,N/A,N/A,-74.0784,4.629
cafe,N/A,N/A,-74.0787,4.628
cafe,GUS® fruterias,fruteria,-74.0671,4.6288
cafe,N/A,N/A,-74.0808,4.7539
cafe,N/A,N/A,-74.0803,4.7549
cafe,N/A,N/A,-74.0812,4.7544
cafe,Rico Ricoto,N/A,-74.0661,4.6383
cafe,N/A,N/A,-74.0659,4.6382
cafe,Fruity Cream,N/A,-74.0664,4.6385
cafe,Fruteria Y Cafeteria,N/A,-74.0656,4.6381
cafe,Felipa,N/A,-74.0651,4.638
cafe,Cafeteria La Especial,N/A,-74.1498,4.6027
cafe,Cafeteria Leona,N/A,-74.1504,4.6031
cafe,Lo mejor del huila,N/A,-74.1506,4.6031
cafe,Tostao’,coffee_shop,-74.0653,4.633
cafe,Panadería y cafetería La 10,N/A,-74.0729,4.5955
cafe,Café Ibañez,N/A,-74.0728,4.5953
cafe,Café Oma,N/A,-74.0732,4.5956
cafe,DELIKATESES DE LA CARRERA 13,N/A,-74.0672,4.6284
cafe,Café Niebla,N/A,-74.0655,4.6299
cafe,almojabaneria EL BUEN SABOR,N/A,-74.1407,4.6377
cafe,Juice Garden,N/A,-74.0648,4.6303
cafe,Sevillana Café,N/A,-74.0991,4.748
cafe,Starbucks,coffee_shop,-74.0493,4.677
cafe,Cigarreria Jerico,N/A,-74.0661,4.6373
cafe,Moreno Brand,N/A,-74.0877,4.6334
cafe,Panadería Don Pan,N/A,-74.0851,4.7478
cafe,Panadería Yiyo,N/A,-74.1027,4.7118
cafe,Café el Altillo,N/A,-74.0298,4.696
cafe,ArtTé,N/A,-74.0297,4.6959
cafe,Oma 61 con 13,coffee_shop,-74.064,4.6478
cafe,Oma,N/A,-74.043,4.7039
cafe,Juan Valdez,N/A,-74.0742,4.5978
cafe,El Templo Té,tea,-74.075,4.6272
cafe,Juan Valdéz,N/A,-74.0293,4.7154
cafe,Illy,cafe,-74.0418,4.7013
cafe,Juan Valdéz,cafe,-74.0417,4.7031
cafe,Starbucks,coffee_shop,-74.0406,4.6806
cafe,N/A,N/A,-74.0563,4.6571
cafe,deli,N/A,-74.0563,4.657
cafe,N/A,N/A,-74.058,4.6575
cafe,N/A,N/A,-74.0628,4.6436
cafe,Arte y Pasión Café,coffee_shop,-74.0772,4.598
cafe,Helados Mimo's,ice_cream,-74.0293,4.7159
cafe,Dunkin' Donuts,N/A,-74.0567,4.656
cafe,N/A,N/A,-74.056,4.6556
cafe,N/A,N/A,-74.059,4.6528
cafe,OMA,coffee,-74.0547,4.6985
cafe,N/A,N/A,-74.1388,4.636
cafe,Cafe de la Fonda,N/A,-74.0782,4.6183
cafe,La Castana Empanadas,N/A,-74.0613,4.6423
cafe,Cafe Rec,N/A,-74.0762,4.5946
cafe,Tostao’,coffee_shop,-74.0744,4.6396
cafe,Tostao’,coffee_shop,-74.0636,4.6353
cafe,Juan Valdez Café,N/A,-74.0711,4.6066
cafe,Cafe Casu,N/A,-74.0704,4.5964
cafe,Magola Buendia,N/A,-74.0678,4.6014
cafe,N/A,N/A,-74.0639,4.7018
cafe,Cafeteria Ed. Baron,burritos,-74.0638,4.6267
cafe,Social Coffee House,N/A,-74.0569,4.65
cafe,Salva Patria,N/A,-74.0608,4.6404
cafe,Amor Perfecto,N/A,-74.0555,4.649
cafe,Casa Rosa,N/A,-74.0612,4.6433
cafe,Azahar Café,coffee_shop,-74.0503,4.678
cafe,Tostao’,coffee_shop,-74.063,4.6453
cafe,Contraste Coffee Lab,coffee_shop,-74.0707,4.6011
cafe,The Corner,"breakfast;burger;local;sandwich",-74.0722,4.5976
cafe,Cafe imperial,coffee_shop,-74.0974,4.7471
cafe,cafeteria amiga,N/A,-74.0793,4.6443
cafe,Bourbon coffee Roasters,N/A,-74.0618,4.6571
cafe,Starbucks,coffee_shop,-74.0672,4.603
cafe,Embajada de la Coca Express,local,-74.0697,4.5993
cafe,Quipile Coffee Roastery,N/A,-74.0687,4.5979
cafe,Afternoon Tea,N/A,-74.0503,4.6802
cafe,Azahar Cafe,N/A,-74.0501,4.678
cafe,El señor de las aromáticas,N/A,-74.065,4.6286
cafe,Café Miró,N/A,-74.0677,4.6272
cafe,Café toscana,N/A,-74.0886,4.616
cafe,N/A,N/A,-74.0889,4.6143
cafe,Le bistrot,N/A,-74.0899,4.6229
cafe,Origami,N/A,-74.0665,4.6129
cafe,N/A,N/A,-74.0698,4.6125
cafe,Crêpe del otro mundo,crepe,-74.0616,4.6468
cafe,La esquina del café express,N/A,-74.0606,4.6626
cafe,Tostao’,coffee_shop,-74.0587,4.6508
cafe,Distrito Chocolate,"cake;coffee_shop;tea",-74.0678,4.6014
cafe,Afternoon Tea,N/A,-74.0432,4.6807
cafe,Café Para Dos,N/A,-74.0705,4.5989
cafe,Espinal la tía,N/A,-74.0714,4.598
cafe,La casserole gourmet,N/A,-74.0714,4.6008
cafe,N/A,N/A,-74.0747,4.5995
cafe,An Taño,N/A,-74.0716,4.5983
cafe,Cafe Pasaje,N/A,-74.0732,4.6009
cafe,La villa del centro,N/A,-74.0723,4.6007
cafe,Don Benitez,N/A,-74.0703,4.6012
cafe,La Vieja Suiza,N/A,-74.0703,4.5985
cafe,Pita Wok,"asian;arab;mediterranean",-74.0706,4.5999
cafe,El Dorado,N/A,-74.0716,4.6021
cafe,Oma,N/A,-74.0677,4.6188
cafe,gracia,"tea;cake;coffee_shop",-74.0693,4.6028
cafe,Hostal Casu,N/A,-74.0693,4.5996
cafe,Ingan,N/A,-74.0695,4.5987
cafe,Mitho,N/A,-74.0694,4.5991
cafe,Tacoa,N/A,-74.0691,4.6002
cafe,Seven,N/A,-74.0694,4.5989
cafe,Papaya Gourmet,N/A,-74.0697,4.5994
cafe,Café Unión,coffee_shop,-74.0722,4.5951
cafe,Tintoreria,N/A,-74.0729,4.5982
cafe,Pal' carajo,N/A,-74.0698,4.5997
cafe,Bananin,N/A,-74.0565,4.7486
cafe,Surticarnes San Diego,N/A,-74.0566,4.7483
cafe,Cafe Kaikun,N/A,-74.0453,4.7389
cafe,El Recinto,N/A,-74.0453,4.7415
cafe,Tostao’,coffee_shop,-74.0447,4.741
cafe,GMA,N/A,-74.0643,4.728
cafe,Monserrate,N/A,-74.0631,4.7455
cafe,Philippe,N/A,-74.0322,4.6951
cafe,yolari,N/A,-74.0711,4.633
cafe,Margantas,N/A,-74.0436,4.7381
cafe,Iron Hot,N/A,-74.025,4.732
cafe,Starbucks,coffee_shop,-74.0464,4.6972
cafe,Starbucks,coffee_shop,-74.0455,4.6781
cafe,Cafeteria Samore,N/A,-74.0443,4.7487
cafe,El Chócolo,N/A,-74.0446,4.6807
cafe,Cafeteria Andina,N/A,-74.0455,4.6788
cafe,Tostao’,coffee_shop,-74.0466,4.6767
cafe,Doña Dicha,N/A,-74.0448,4.6973
cafe,El Cafeta,N/A,-74.0596,4.6558
cafe,Café Quindío,N/A,-74.0565,4.6609
cafe,Petite Creperie,N/A,-74.0366,4.6984
cafe,Dely Frut,N/A,-74.0252,4.7375
cafe,Taktica,N/A,-74.0532,4.6581
cafe,Cafeteria Y Golosinas,N/A,-74.0639,4.651
cafe,N/A,N/A,-74.0619,4.6447
cafe,Fútbol y Café,N/A,-74.0699,4.7203
cafe,Treffen,N/A,-74.0623,4.6424
cafe,Café Danners,N/A,-74.0625,4.6545
cafe,Lado Sur Cafe,N/A,-74.0626,4.6542
cafe,Dunkin' Donuts,donut,-74.0564,4.6878
cafe,Cigarreria los Pinos,N/A,-74.0635,4.6375
cafe,Mazza,N/A,-74.0617,4.652
cafe,Time Cafe & Snacks,N/A,-74.0642,4.6321
cafe,Tends Café,N/A,-74.0606,4.6492
cafe,Merlot Cafe,N/A,-74.0624,4.6504
cafe,Tosta'o,N/A,-74.0631,4.6508
cafe,Talea,N/A,-74.0748,4.6981
cafe,El Viejo Bandito,N/A,-74.0629,4.6525
cafe,Libro Arte,N/A,-74.076,4.6966
cafe,Cafe,N/A,-74.0584,4.6543
cafe,Davinici Cafe,N/A,-74.0683,4.6191
cafe,De Mez Empanadas,N/A,-74.06,4.6618
cafe,Fruty Layo,N/A,-74.0599,4.6619
cafe,Santa Elena,N/A,-74.0695,4.615
cafe,Wheels & Coffee,N/A,-74.0572,4.668
cafe,Café luz,N/A,-74.0727,4.6275
cafe,Tostao’,coffee_shop,-74.0401,4.6988
cafe,Latte,N/A,-74.059,4.6528
cafe,Tostao’,coffee_shop,-74.0604,4.6607
cafe,Smart Kafe,N/A,-74.0603,4.6608
cafe,Presto,N/A,-74.0601,4.6611
cafe,Café,N/A,-74.0589,4.6668
cafe,Central Park Café,N/A,-74.0581,4.6682
cafe,Dunkin' Donuts,donut,-74.0564,4.6674
cafe,Oasis,N/A,-74.0558,4.6667
cafe,Café y Compañía,N/A,-74.096,4.6778
cafe,Difel,N/A,-74.0928,4.682
cafe,Tostao’,coffee_shop,-74.0463,4.7044
cafe,Congutos Juice,N/A,-74.0775,4.6282
cafe,Patti,N/A,-74.0954,4.6782
cafe,Peru Cafe,N/A,-74.0706,4.623
cafe,Frutiferias Cafetería,N/A,-74.0852,4.6815
cafe,Panesi,N/A,-74.0321,4.7042
cafe,Tostao’,coffee_shop,-74.0327,4.7024
cafe,Picados,N/A,-74.0921,4.6904
cafe,Tropical,N/A,-74.0927,4.6853
cafe,Tostao',N/A,-74.093,4.6856
cafe,Mi dulce Tentación,N/A,-74.0934,4.686
cafe,Pati,N/A,-74.0917,4.6845
cafe,Antojitos,N/A,-74.0942,4.688
cafe,Tostao’,coffee_shop,-74.0495,4.7
cafe,La Bodegueta,N/A,-74.0512,4.7048
cafe,Super Tatti,N/A,-74.0988,4.6719
cafe,Tostao’,coffee_shop,-74.0292,4.7164
cafe,Coffee Valdez,N/A,-74.0891,4.6799
cafe,Le Petit Café,N/A,-74.0882,4.6742
cafe,gelados coffee,"ice_cream;coffee_shop",-74.2039,4.6264
cafe,panaderia okapi,coffee_shop,-74.204,4.6264
cafe,Butaquilla Teatro Cafe,N/A,-74.0705,4.6335
cafe,wraps y soda,N/A,-74.1589,4.6145
cafe,New Cafe Bar,N/A,-74.1262,4.5821
cafe,Panadería Pan Granada,N/A,-74.1246,4.7201
cafe,las guacas,coffee_shop,-74.122,4.5987
cafe,Panaderia y Cafeteria España,N/A,-74.1229,4.6017
cafe,panaderia la fontana,N/A,-74.1214,4.5964
cafe,Multipan,N/A,-74.1936,4.6053
cafe,Lacteos y cafeteria Ubate,N/A,-74.071,4.6307
cafe,Chez San,N/A,-74.072,4.6184
cafe,Juancho's,N/A,-74.0724,4.6188
cafe,Cappuccino,N/A,-74.0678,4.659
cafe,Almendras,N/A,-74.0537,4.6612
cafe,Sandwich & Coffee Shop,N/A,-74.0604,4.6587
cafe,Dunkin' Donuts,donut,-74.0588,4.6569
cafe,Starbucks,coffee_shop,-74.0574,4.656
cafe,Cafetería,N/A,-74.0628,4.6598
cafe,D' Milosh,N/A,-74.0632,4.6601
cafe,Café,N/A,-74.0683,4.6592
cafe,Irejo,N/A,-74.0632,4.6617
cafe,Yoli,N/A,-74.0634,4.6632
cafe,Cafetería donde Lily,N/A,-74.0638,4.6596
cafe,Broasted Y Delicias,N/A,-74.0627,4.6627
cafe,Cafeteria,N/A,-74.0576,4.662
cafe,Tartas Y Tortos Angelita,N/A,-74.0576,4.6621
cafe,Express Capuchinos Cafeteria,N/A,-74.0586,4.6627
cafe,Arty Gourmet Coffee,N/A,-74.063,4.6606
cafe,Pandebono Y Café La 74,N/A,-74.0615,4.6626
cafe,Tostao’,coffee_shop,-74.055,4.6711
cafe,Cava de Quesos 2,N/A,-74.0546,4.6694
cafe,El Chócolo,N/A,-74.055,4.6697
cafe,Tostao’,coffee_shop,-74.0582,4.6637
cafe,Corera,N/A,-74.0655,4.6616
cafe,La Tertulia,N/A,-74.0647,4.6612
cafe,Starbucks,coffee_shop,-74.0524,4.6673
cafe,Uluru,N/A,-74.0716,4.6987
cafe,Juan Valdez Café,N/A,-74.0551,4.6701
cafe,Sevilla,N/A,-74.0541,4.6722
cafe,Cafeteria Valle,N/A,-74.0555,4.6704
cafe,Caffeina,N/A,-74.0709,4.6727
cafe,Juan Baldez Café,N/A,-74.0569,4.6685
cafe,Juan Pablos Caffe,N/A,-74.0593,4.664
cafe,Cafeteria Sion,N/A,-74.0581,4.6629
cafe,Caffe La Vid Maria C.,N/A,-74.0616,4.6631
cafe,N/A,N/A,-74.07,4.7162
cafe,El Bosque,N/A,-74.0652,4.6644
cafe,Onces Y Variedades LA 76,N/A,-74.0627,4.665
cafe,La Casa del Artesano,N/A,-74.033,4.7409
cafe,El Rinconcito Ideal,N/A,-74.0333,4.7413
cafe,Bocados Express,N/A,-74.0919,4.6836
cafe,Fruteria y Cafeteria,N/A,-74.0936,4.6853
cafe,Castelao,N/A,-74.0727,4.6746
cafe,Cafetería,N/A,-74.1005,4.6792
cafe,Cafetería A.D.,N/A,-74.0942,4.6843
cafe,Pati,N/A,-74.0963,4.677
cafe,Sandwich Maestro,N/A,-74.0836,4.6321
cafe,Duo Café,N/A,-74.1002,4.6729
cafe,Cefeteria Java Cafe,N/A,-74.0675,4.6693
cafe,Delicias LA 78,N/A,-74.0681,4.6709
cafe,Los Medina,N/A,-74.0653,4.6655
cafe,Paula Andrea,N/A,-74.0663,4.6687
cafe,Cafeteria Y Cigarreria,N/A,-74.0684,4.6708
cafe,Coffe Cream,N/A,-74.0669,4.6699
cafe,Caffe y Caffe,N/A,-74.0734,4.6603
cafe,In A Mug,N/A,-74.0435,4.7224
cafe,Mi Dulce Antojito,N/A,-74.1064,4.6703
cafe,Panadería Y Cafeteria LA 28,N/A,-74.0649,4.67
cafe,Cafe Victoria,N/A,-74.1096,4.6799
cafe,Tostao’,coffee_shop,-74.0446,4.7226
cafe,Zenú,N/A,-74.0728,4.6758
cafe,Dunkin' Donuts,donut,-74.0559,4.6919
cafe,Mileidy,N/A,-74.0752,4.6578
cafe,Cerveceros,N/A,-74.1029,4.7003
cafe,Al Agua Patos,N/A,-74.0506,4.6905
cafe,Tosta'o,N/A,-74.0599,4.7162
cafe,Tostao’,coffee_shop,-74.0346,4.7184
cafe,Tostao',N/A,-74.0572,4.7193
cafe,Cafetería La Malagueña,N/A,-74.0988,4.7017
cafe,Coffee Shop La Clé,N/A,-74.0731,4.6608
cafe,Lavaseco,N/A,-74.0679,4.673
cafe,Café Curicso,N/A,-74.092,4.6994
cafe,Mandala,N/A,-74.0611,4.6751
cafe,Salon de Onces Emmanuel,N/A,-74.0981,4.6916
cafe,Tostao',N/A,-74.0983,4.6913
cafe,Lyl,N/A,-74.0563,4.7146
cafe,Cafexpress,N/A,-74.0955,4.6917
cafe,Cafe La Hueria,N/A,-74.0624,4.6754
cafe,Surtidora Polo Club,N/A,-74.063,4.6736
cafe,Tostao’,coffee_shop,-74.0495,4.6948
cafe,Station Coffee Good,N/A,-74.0642,4.6705
cafe,Libre,N/A,-74.0694,4.6879
cafe,Pandebono's,N/A,-74.0367,4.7196
cafe,Delichicks,N/A,-74.065,4.6848
cafe,La Bagettina,N/A,-74.0433,4.7493
cafe,Cafeteria,N/A,-74.0656,4.6862
cafe,La Rochelle,N/A,-74.0408,4.719
cafe,La Huerta Organica,N/A,-74.0695,4.6882
cafe,Monkys,N/A,-74.0651,4.6834
cafe,Comida Rapida,N/A,-74.065,4.6838
cafe,Mary,N/A,-74.0648,4.6855
cafe,Fruty Caffe Rio,N/A,-74.0647,4.686
cafe,Cafeteria la 82,N/A,-74.1039,4.6945
cafe,Agara,N/A,-74.1053,4.6961
cafe,Boranda,N/A,-74.1021,4.6967
cafe,La Rio Ja,N/A,-74.0961,4.6944
cafe,La Gran Ensalada,N/A,-74.1008,4.7006
cafe,Cigarreria Cafeteria La Gran Manzana 3,N/A,-74.0767,4.6555
cafe,Tostao’,coffee_shop,-74.0692,4.698
cafe,J.B. 76,N/A,-74.0987,4.6972
cafe,Cafeteria Cigarreria ELI,N/A,-74.0759,4.6553
cafe,Tostao’,coffee_shop,-74.0672,4.6939
cafe,Cafetería Ricuras Huilenses,N/A,-74.0921,4.7227
cafe,Los Pachos,N/A,-74.0526,4.7213
cafe,Tostao',N/A,-74.1068,4.7069
cafe,Wimpy's,N/A,-74.1042,4.7086
cafe,Exito,N/A,-74.0585,4.7225
cafe,Succo,N/A,-74.0521,4.722
cafe,Café Real,N/A,-74.0986,4.7064
cafe,Disney Kids,N/A,-74.1041,4.705
cafe,Primavera,N/A,-74.1039,4.705
cafe,Vegan Fit,N/A,-74.0822,4.6304
cafe,N/A,N/A,-74.0619,4.6841
cafe,Cigarreria Piter,N/A,-74.0787,4.6273
cafe,Tipicas,empanada,-74.0929,4.6465
cafe,Cafe Delicious,N/A,-74.0601,4.6868
cafe,Cafe & Maniares,N/A,-74.0685,4.6556
cafe,Caraniba!,N/A,-74.0659,4.65
cafe,Cafe Montaña Roja,N/A,-74.0688,4.6506
cafe,Comipastel MT,N/A,-74.0997,4.7138
cafe,Arman Ruiz Café Bar,N/A,-74.0708,4.6509
cafe,Priamo Spresso,N/A,-74.0539,4.7139
cafe,Ciudadela Mix,N/A,-74.1107,4.7235
cafe,Sabor & Sazon,N/A,-74.0704,4.6542
cafe,Cafe Blabia,N/A,-74.0673,4.6499
cafe,Tostadora de Cafe,N/A,-74.1101,4.7063
cafe,Wimpy's,N/A,-74.1099,4.7036
cafe,Jorge y Gloria Café,N/A,-74.1084,4.7056
cafe,Tostao',N/A,-74.1073,4.7052
cafe,Budapest,N/A,-74.1074,4.6917
cafe,Patti,N/A,-74.103,4.6869
cafe,Coffee Pane,N/A,-74.1029,4.6871
cafe,Santa Helenita,N/A,-74.1018,4.6921
cafe,Mercafe,N/A,-74.1023,4.6918
cafe,San Remo,N/A,-74.1022,4.6607
cafe,N/A,N/A,-74.1125,4.6947
cafe,Tostao’,coffee_shop,-74.057,4.6915
cafe,La Merienda Expres de la 64,N/A,-74.0631,4.6514
cafe,Panderos del Valle,N/A,-74.0631,4.6513
cafe,Almojabanas el Antojo,N/A,-74.0631,4.6512
cafe,Servitienda Greco,N/A,-74.102,4.655
cafe,Cafetería La Campiña,N/A,-74.0704,4.6551
cafe,Tostao',N/A,-74.0656,4.6432
cafe,Nativos,N/A,-74.0655,4.6438
cafe,Fussion,N/A,-74.0901,4.6493
cafe,Despensa Ganodera,N/A,-74.0869,4.647
cafe,Ricuras J.P,N/A,-74.0646,4.648
cafe,Bananas,N/A,-74.0642,4.6479
cafe,Dely 60,N/A,-74.0643,4.647
cafe,Fruty Express,N/A,-74.0643,4.6505
cafe,Ambar Coffee,N/A,-74.0737,4.6427
cafe,Aroma y Color,N/A,-74.0731,4.6492
cafe,Empanadas,N/A,-74.0626,4.6432
cafe,Lo Mejor de la 57,N/A,-74.0631,4.6437
cafe,Fruteria Y Cafeteria De La 62,N/A,-74.0632,4.6485
cafe,La Papayita,N/A,-74.0625,4.646
cafe,La Fábrika,N/A,-74.0629,4.6462
cafe,Tipicas empanadas,N/A,-74.0633,4.6464
cafe,Frutos y Afopisiacos,N/A,-74.1238,4.7084
cafe,Super Frutas,N/A,-74.0636,4.6476
cafe,Super Empanadas,N/A,-74.0628,4.6473
cafe,Cafe Sirápe,N/A,-74.0623,4.646
cafe,Chante,N/A,-74.0624,4.6461
cafe,Pan de Nobles,N/A,-74.0624,4.6461
cafe,Delicias de la 58,N/A,-74.0643,4.6455
cafe,El Gustazo,N/A,-74.0647,4.6433
cafe,Cigarrería y Cafetería,N/A,-74.0647,4.6409
cafe,Sandwich & Coffee Shop,"lunch;sandwich",-74.0753,4.6316
cafe,Café Bliss,N/A,-74.0753,4.631
cafe,Punto 53,N/A,-74.065,4.641
cafe,Tostao’,coffee_shop,-74.0662,4.6341
cafe,Power Up smart snaks,N/A,-74.0568,4.6644
cafe,Cefeteria San Gabriel,N/A,-74.0682,4.6222
cafe,Como & Gozo,N/A,-74.0683,4.6217
cafe,Reposteria,N/A,-74.0685,4.6204
cafe,Otoño Café,N/A,-74.0687,4.6196
cafe,Café Studio,N/A,-74.0688,4.6196
cafe,Sapillas,N/A,-74.07,4.6203
cafe,Mr. Smoothie,N/A,-74.0742,4.6399
cafe,Tostao',N/A,-74.0751,4.6346
cafe,Madrieria,N/A,-74.0742,4.6414
cafe,Two Taller café Bicis,N/A,-74.0749,4.637
cafe,Greeen Berry,N/A,-74.0753,4.6348
cafe,Donde Chiky,N/A,-74.0758,4.6411
cafe,Jaigal Express,N/A,-74.074,4.6408
cafe,Cafetería Lucy,N/A,-74.0734,4.6357
cafe,Bunuelin,N/A,-74.0734,4.6357
cafe,Sarita,N/A,-74.0737,4.6344
cafe,La Café,N/A,-74.0746,4.6316
cafe,Ala Invasiōn,N/A,-74.07,4.6376
cafe,La Bonca,N/A,-74.07,4.6377
cafe,Adaia,N/A,-74.1227,4.7038
cafe,Carbon Factory,N/A,-74.0774,4.6418
cafe,Pan Dorado,N/A,-74.0756,4.6409
cafe,El Gran Pan De Dios,N/A,-74.0699,4.6369
cafe,Manaris,N/A,-74.0699,4.6371
cafe,Sabrosita,N/A,-74.0691,4.6329
cafe,Empanaditas,N/A,-74.0777,4.6437
cafe,Choco Helados,N/A,-74.1301,4.7017
cafe,Quesos & Yogurt,N/A,-74.1178,4.7051
cafe,Torito's Coffee Shop,N/A,-74.0674,4.6398
cafe,Trigo Miel,N/A,-74.0688,4.6432
cafe,Empanada Rica,N/A,-74.1166,4.7037
cafe,Bugs Bonny,N/A,-74.1168,4.7022
cafe,Steven's Pan,N/A,-74.1258,4.7053
cafe,Frutisima,N/A,-74.1245,4.7113
cafe,Mer Carnes,N/A,-74.1242,4.7117
cafe,El Triunfo,N/A,-74.1227,4.7101
cafe,Panificadora,N/A,-74.1211,4.7125
cafe,Lizkapan,N/A,-74.1189,4.7146
cafe,Indupan Leo,N/A,-74.1192,4.7148
cafe,La Dote Villa,N/A,-74.1214,4.716
cafe,El Gran Baguet,N/A,-74.1228,4.7156
cafe,El Imperio del Pacifico II,N/A,-74.1232,4.7159
cafe,Emba Jada Del Pacifico,N/A,-74.1234,4.7161
cafe,Miretta,N/A,-74.1236,4.7166
cafe,Wimras,N/A,-74.1231,4.7171
cafe,Típicas Del Valle,N/A,-74.1212,4.7195
cafe,Surtidora de Aves,N/A,-74.1226,4.7191
cafe,La Cose Dora,N/A,-74.1243,4.7177
cafe,Biensestar,N/A,-74.1313,4.7196
cafe,Uni Carnes,N/A,-74.1304,4.7196
cafe,Maye,N/A,-74.124,4.7051
cafe,Del Buen Corte,N/A,-74.1251,4.7051
cafe,Chorizos al Carbon,N/A,-74.1265,4.7077
cafe,Carnes Angelos,N/A,-74.1225,4.7103
cafe,La Amistad,N/A,-74.1184,4.7144
cafe,Pizzabella,N/A,-74.1309,4.7197
cafe,Tostao',N/A,-74.0947,4.5999
cafe,Tostao’,coffee_shop,-74.0729,4.629
cafe,Bon Voyage Cafe,N/A,-74.0947,4.6325
cafe,Bon voyage cafe,N/A,-74.0947,4.6325
cafe,Cafeteria,N/A,-74.0738,4.6057
cafe,Tostao' Café & Pan,N/A,-74.0703,4.6041
cafe,"La Candelaria;La estación",N/A,-74.0692,4.5979
cafe,Donde El Flaco,N/A,-74.0693,4.5977
cafe,Camaleón Restaurante Café Bar,N/A,-74.0681,4.6035
cafe,Duocafé,N/A,-74.0706,4.5989
cafe,Café Berlin,N/A,-74.068,4.6009
cafe,Qinta,N/A,-74.0699,4.6051
cafe,Cafeteria y Fruteria Tatis La 19,N/A,-74.0723,4.606
cafe,Coffee Break,coffee_shop,-74.0763,4.6033
cafe,Dunkin' Donuts,donut,-74.0753,4.6006
cafe,Cafeteria Recargas,N/A,-74.0797,4.593
cafe,N/A,N/A,-74.0804,4.5872
cafe,Cafeteria,N/A,-74.0886,4.5918
cafe,N/A,N/A,-74.0737,4.6028
cafe,Juan Valdez Cafe,N/A,-74.0699,4.6154
cafe,Starbucks,coffee_shop,-74.0699,4.6154
cafe,Cafetería Extacion Purto 7,N/A,-74.0793,4.5914
cafe,Panadernda,N/A,-74.0925,4.6099
cafe,Monterrey,N/A,-74.0934,4.6106
cafe,Oma,N/A,-74.0738,4.5998
cafe,Fragopan,N/A,-74.0932,4.5847
cafe,Cafetería El Progreso,N/A,-74.1016,4.5837
cafe,Cafetería J Deicy,N/A,-74.101,4.5832
cafe,Cafeteria Eva,N/A,-74.098,4.5836
cafe,N/A,N/A,-74.0876,4.5815
cafe,Donde Fercho,N/A,-74.0722,4.612
cafe,Punto inca,N/A,-74.0723,4.6118
cafe,Mandarina,N/A,-74.0727,4.6114
cafe,Donde Alex,N/A,-74.0745,4.6092
cafe,Yasuri,N/A,-74.0753,4.6083
cafe,Bunuelada de la 12,N/A,-74.0802,4.6042
cafe,Los Pachecos,N/A,-74.0856,4.6112
cafe,Chori Sopas,N/A,-74.0985,4.5726
cafe,La Despensa,N/A,-74.0987,4.5728
cafe,Restaurante Cafeteria,N/A,-74.0814,4.6169
cafe,Cafeteria La Nocional 1A,N/A,-74.0877,4.6025
cafe,el gran surtidor dela 24,N/A,-74.0752,4.6136
cafe,Cigarreria Donde Mi Pez,N/A,-74.0747,4.6131
cafe,Doggis Expres,N/A,-74.0745,4.6129
cafe,Cigarreria Donde El Vecino,N/A,-74.0738,4.6111
cafe,Cafeteria Bar Pipe,N/A,-74.0759,4.611
cafe,Maber,N/A,-74.1095,4.5904
cafe,Cigarreria La Estrella,N/A,-74.1139,4.5972
cafe,Mis Delicias,N/A,-74.0955,4.5717
cafe,La Embajadora,N/A,-74.1137,4.6169
cafe,Variedades Rosi,N/A,-74.1121,4.6198
cafe,Restaurante 8 FM,N/A,-74.1108,4.6199
cafe,Comidas Rapidas Lecoco,N/A,-74.1106,4.6198
cafe,Cafeteria Mi Gran Santander,N/A,-74.1057,4.5846
cafe,Cafeteria La 24,N/A,-74.1037,4.5888
cafe,Pasteleria Latina,N/A,-74.1041,4.589
cafe,Los Leones del Sabor,N/A,-74.1042,4.5889
cafe,Tatys,N/A,-74.1078,4.5856
cafe,Rikuwa,N/A,-74.1091,4.5853
cafe,Minimercado de Miguelito,N/A,-74.1087,4.5856
cafe,El Trigal de la 28,N/A,-74.1081,4.5793
cafe,Restaurante Maduros,N/A,-74.0511,4.6931
cafe,Caffe Expres,N/A,-74.0933,4.5742
cafe,Panadería y Cafeteria la Fortuna,N/A,-74.0912,4.5508
cafe,La Victoria,N/A,-74.0925,4.5495
cafe,Auxiliar en Enfermeria,N/A,-74.0919,4.554
cafe,Delicias Del Santa Fe Cafetería,N/A,-74.0771,4.6131
cafe,Cafe & Licor,N/A,-74.0883,4.6034
cafe,Trigo & Mana,N/A,-74.0871,4.5423
cafe,Cafeteria El Abuelo,N/A,-74.0836,4.6047
cafe,La 21,N/A,-74.09,4.6042
cafe,Cafeteria El Punto 80,N/A,-74.0835,4.69
cafe,Cafeteria Donde Leon,N/A,-74.0645,4.6824
cafe,Amigos Luna,N/A,-74.0646,4.6817
cafe,casa dulce,N/A,-74.0653,4.6818
cafe,Fruteria & Cafeteria,N/A,-74.0872,4.6305
cafe,Tostao’,coffee_shop,-74.0877,4.6333
cafe,Don Pollo,N/A,-74.0872,4.542
cafe,Global Cafe,N/A,-74.0875,4.6324
cafe,Star,N/A,-74.086,4.6315
cafe,cigarrera y cafeteria El Imperio A.S.C.,N/A,-74.066,4.6822
cafe,La Chispita Roja,N/A,-74.0899,4.5406
cafe,Cafatería Las Natas,N/A,-74.0994,4.5864
cafe,Panadería Cafatería Yefrid,N/A,-74.0984,4.5851
cafe,Fruitería Cafeteriía Tropical ML,N/A,-74.1011,4.5882
cafe,Caffetería Coffe Time,N/A,-74.1025,4.5878
cafe,Cafeteria Los Pinos,N/A,-74.0946,4.6324
cafe,Frutos Coffee,coffee_shop,-74.0618,4.6522
cafe,Pento Nectar Cafe,N/A,-74.1056,4.5893
cafe,City Pizza Cafe,pizza,-74.0626,4.6507
cafe,Tostao’,coffee_shop,-74.0931,4.6309
cafe,Panadería y Cafateria La Gran Esperanza,N/A,-74.1021,4.5891
cafe,Pan y Cafe Saenz,N/A,-74.1044,4.5916
cafe,Mercaverduras J.D,N/A,-74.1045,4.5916
cafe,El Buen Gusto,N/A,-74.1076,4.5896
cafe,La Primavera,N/A,-74.1076,4.5896
cafe,Tienda Marina,N/A,-74.107,4.5896
cafe,Café de la Reserva,N/A,-74.0709,4.5973
cafe,Panadería la Espiga Dorada,N/A,-74.0887,4.5437
cafe,La Gran Delicia,N/A,-74.091,4.6277
cafe,Mil Salones,N/A,-74.091,4.6273
cafe,Buen Manjar,N/A,-74.1014,4.5645
cafe,Cafe Bochica Express,N/A,-74.0911,4.627
cafe,Fruteria Y Cafeteria,N/A,-74.0911,4.6268
cafe,Espresso,N/A,-74.1144,4.6303
cafe,Mustafan,N/A,-74.1398,4.5526
cafe,Cafeteria La Moni's,N/A,-74.1272,4.5613
cafe,Juan Valdez Café,coffee_shop,-74.108,4.6593
cafe,Cafetería La Libre Alternativa,N/A,-74.1042,4.6685
cafe,Futbols Cafeteria,N/A,-74.1044,4.6257
cafe,Fuente de Soda Abba,N/A,-74.1105,4.6315
cafe,Portparts De Colombia,N/A,-74.1081,4.6316
cafe,Colombianisimo,N/A,-74.1223,4.6637
cafe,Sabrosa's Food,N/A,-74.1222,4.6638
cafe,Sensación,N/A,-74.1221,4.6639
cafe,Maria Maria,N/A,-74.1212,4.6647
cafe,Sabor y Carbon,N/A,-74.1034,4.6233
cafe,Desayunos Almuenzos Pescaderia,N/A,-74.1035,4.6234
cafe,La Sultana,N/A,-74.0971,4.6146
cafe,Milenium Caffe,N/A,-74.1221,4.6642
cafe,Calu,N/A,-74.106,4.6049
cafe,Alejandra,N/A,-74.1052,4.6041
cafe,La Tarta,french,-74.031,4.6941
cafe,Los Trigales De Villa Adriana,N/A,-74.1301,4.6114
cafe,Cafeteria,N/A,-74.1367,4.6083
cafe,Zapatoca,N/A,-74.1125,4.6095
cafe,La Fonda Cafe Bar,N/A,-74.1,4.5985
cafe,Cafetería El Tio,N/A,-74.1021,4.6188
cafe,Andrestio,N/A,-74.1038,4.6145
cafe,Cafeteria Variedades,N/A,-74.1068,4.6159
cafe,La Grand Turquesa,N/A,-74.1123,4.6059
cafe,Punto 57,N/A,-74.1062,4.6318
cafe,Cafeteria Grumpy,N/A,-74.1325,4.6109
cafe,La Arepa Quesuda,N/A,-74.0969,4.6132
cafe,El Palacio Del Pan L&L,N/A,-74.1262,4.6206
cafe,Las Oflicas,N/A,-74.1293,4.6181
cafe,Flor del Valle,N/A,-74.1333,4.6155
cafe,La Gallina Dorada,N/A,-74.1285,4.6068
cafe,Panadería y Cafetería La Sexta S T,N/A,-74.1226,4.6263
cafe,El Pan Bendito,N/A,-74.1192,4.6238
cafe,Panaderiía y Cafeteriía El Punto Del Sabor,N/A,-74.1074,4.62
cafe,Comuneros de Santander,N/A,-74.1233,4.5949
cafe,Aroma de Café,N/A,-74.0988,4.62
cafe,N/A,N/A,-74.0995,4.6846
cafe,Barista Roja,N/A,-74.1416,4.5857
cafe,Panadería Y Cafateria El Trigal De Villa,N/A,-74.1397,4.6045
cafe,Cafetería,N/A,-74.1551,4.6375
cafe,Tostao',N/A,-74.1373,4.6479
cafe,Exelpan,N/A,-74.1367,4.6546
cafe,Cigarreria J.G,N/A,-74.159,4.6199
cafe,Cigarreria Casa Blanca,N/A,-74.1577,4.6368
cafe,Angie Pan,N/A,-74.1583,4.6375
cafe,Pikos Rikos a La Brasa,N/A,-74.1576,4.6367
cafe,Panishop,N/A,-74.1459,4.64
cafe,A'Comer,N/A,-74.1572,4.6375
cafe,La Esperanza,N/A,-74.1573,4.6368
cafe,La Promesa,N/A,-74.1373,4.6521
cafe,Entre Las Manzanas,N/A,-74.1101,4.5991
cafe,La Villetana,N/A,-74.1384,4.6124
cafe,El Tolimense,N/A,-74.1395,4.6113
cafe,Stefany Gourmet,N/A,-74.1402,4.6064
cafe,A & M,N/A,-74.1377,4.6076
cafe,Carvajal,N/A,-74.1389,4.6147
cafe,Kronos,N/A,-74.1378,4.6132
cafe,El Pinar,N/A,-74.1368,4.6113
cafe,Donde Omar,N/A,-74.1349,4.6123
cafe,Oasis,N/A,-74.1389,4.5917
cafe,La Provincia,N/A,-74.1387,4.5917
cafe,Café Expréss La Catedral,N/A,-74.0738,4.5994
cafe,panaderia yuli,regional,-74.1676,4.6252
cafe,Cafetería,spanish,-74.1296,4.6149
cafe,La Plazuela,N/A,-74.0732,4.6008
cafe,Arte y Pasion Cafe,N/A,-74.0735,4.603
cafe,Candelaria Café,N/A,-74.0743,4.5997
cafe,Buñueleria el buen gusto,N/A,-74.1984,4.6107
cafe,Tostao',N/A,-74.0262,4.7392
cafe,Bogotá Coffee Roasters,N/A,-74.0726,4.6319
cafe,Café Devoción,N/A,-74.0552,4.6557
cafe,Tostao’,coffee_shop,-74.0473,4.6886
cafe,Tostao’,coffee_shop,-74.0494,4.7047
cafe,Frambuesa,N/A,-74.056,4.6657
cafe,N/A,coffee_shop,-74.1143,4.7238
cafe,N/A,N/A,-74.1145,4.7226
cafe,N/A,N/A,-74.1145,4.7239
cafe,N/A,N/A,-74.1142,4.7227
cafe,N/A,N/A,-74.0902,4.6979
cafe,Tostao’,coffee_shop,-74.091,4.6967
cafe,N/A,N/A,-74.0882,4.6966
cafe,N/A,N/A,-74.0898,4.6976
cafe,N/A,N/A,-74.09,4.6977
cafe,Muros Cafe,N/A,-74.0688,4.6048
cafe,Hibrido,N/A,-74.0698,4.6006
cafe,Bogota,N/A,-74.0725,4.6319
cafe,Mr. Pan de Bono,empanada,-74.0768,4.6227
cafe,N/A,"juice;salad;breakfast;coffee;tea;smoothies",-74.077,4.623
cafe,9:00 AM Desayuno,breakfast,-74.0662,4.6527
cafe,Starbucks,coffee_shop,-74.0554,4.6516
cafe,Candy Shake,dessert,-74.0551,4.6512
cafe,Autopanes,N/A,-74.0455,4.686
cafe,Canela,N/A,-74.0506,4.6814
cafe,Tostao’,coffee_shop,-74.0432,4.7023
cafe,The Sandwich Boutique,"sandwich;international",-74.0705,4.5987
cafe,Kurenai maid cafe,N/A,-74.0499,4.6984
cafe,Tostao’,coffee_shop,-74.0668,4.6406
cafe,Bizcoteca,N/A,-74.0691,4.6338
cafe,Cafe de Mundo,N/A,-74.0691,4.6338
cafe,Alta Gracia Arroz con Leche,N/A,-74.0567,4.6489
cafe,N/A,pastel,-74.0258,4.767
cafe,Tesla Té y Café,coffee_shop,-74.0719,4.6384
cafe,Cantera Cafe Work,coffee_shop,-74.0757,4.6324
cafe,Milenium Cafe,N/A,-74.0751,4.6392
cafe,Mosto,N/A,-74.0734,4.6259
cafe,Tostao’,coffee_shop,-74.042,4.6812
cafe,Coffee Way,N/A,-74.0765,4.6316
cafe,Moffis,N/A,-74.0778,4.6341
cafe,Mango Plus,N/A,-74.0812,4.6278
cafe,Charlies Cafe,american,-74.0408,4.6889
cafe,N/A,N/A,-74.0733,4.6205
cafe,N/A,N/A,-74.0725,4.6213
cafe,Ofiservice & Coffee,N/A,-74.0724,4.6219
cafe,Hora de Café,N/A,-74.0749,4.6294
cafe,N/A,N/A,-74.0817,4.6886
cafe,MusiCafé 80s,N/A,-74.0925,4.6975
cafe,La Tarteria,N/A,-74.0719,4.5978
cafe,Bimbi,N/A,-74.0538,4.6694
cafe,Juan Valdez Café,N/A,-74.0583,4.6509
cafe,Tostao’,coffee_shop,-74.0582,4.6514
cafe,La Tortata,N/A,-74.059,4.6501
cafe,N/A,N/A,-74.0645,4.6272
cafe,San Jose de Isnos,N/A,-74.0603,4.6519
cafe,Duocafé,N/A,-74.0705,4.6035
cafe,Tostao’,coffee_shop,-74.0664,4.6316
cafe,Coffee Bar La 45,N/A,-74.0733,4.6335
cafe,Cafeteria Todo Rico,N/A,-74.0729,4.6334
cafe,Bienvenido... ¡Siga!,N/A,-74.0729,4.6334
cafe,Café Irlandés,N/A,-74.0721,4.6329
cafe,Café Tertulia,N/A,-74.0779,4.6243
cafe,Cofre de Frutas,N/A,-74.0631,4.6531
cafe,Delizziozo,N/A,-74.0648,4.6422
cafe,Tostao’,coffee_shop,-74.065,4.642
cafe,Tostao’,coffee_shop,-74.0657,4.6376
cafe,Oma,N/A,-74.0756,4.6423
cafe,Caffeto,N/A,-74.0685,4.6191
cafe,Pal Break,N/A,-74.0685,4.6193
cafe,Café 32,N/A,-74.0684,4.62
cafe,Café Bar Jack Daniels,N/A,-74.0682,4.621
cafe,Cafetería J.C.,N/A,-74.0758,4.6233
cafe,Cigarrería Dely Mary,N/A,-74.0723,4.6351
cafe,El Café de la Maldita Vanidad,N/A,-74.0719,4.634
cafe,Café Marrón,N/A,-74.072,4.6336
cafe,Cada Loco con su Tema,N/A,-74.0645,4.6352
cafe,Java Express,N/A,-74.0647,4.6354
cafe,Octavo's,N/A,-74.0719,4.6134
cafe,K-feto,N/A,-74.0717,4.6127
cafe,Toffe Café,N/A,-74.0716,4.6121
cafe,Rapifrutis,N/A,-74.0721,4.6121
cafe,N/A,N/A,-74.0721,4.6121
cafe,N/A,N/A,-74.072,4.6122
cafe,Cafetin Express,N/A,-74.0723,4.6115
cafe,Tostao',N/A,-74.0729,4.6112
cafe,Tostao’,coffee_shop,-74.094,4.6483
cafe,N/A,N/A,-74.0681,4.6164
cafe,Bolcatos,breakfast,-74.0676,4.6163
cafe,N/A,N/A,-74.0753,4.6202
cafe,Libertario Coffee Roasters,coffee_shop,-74.0549,4.6529
cafe,Di Pomodoro,N/A,-74.0774,4.6236
cafe,Colombian Juice,juice,-74.0773,4.6235
cafe,Cafetería Las Tablitas,N/A,-74.0777,4.6236
cafe,N/A,N/A,-74.0768,4.6223
cafe,Casa Galeria Café,N/A,-74.0695,4.598
cafe,ReLove,N/A,-74.0672,4.6528
cafe,N/A,N/A,-74.0698,4.6416
cafe,Oma,N/A,-74.0911,4.6439
cafe,N/A,N/A,-74.0696,4.6456
cafe,Ambar Coffee,N/A,-74.0733,4.642
cafe,Umbi Cafe,N/A,-74.073,4.6421
cafe,Soca,N/A,-74.0711,4.6172
cafe,Kaffa Café,N/A,-74.0703,4.6168
cafe,de / té / en / té,tea,-74.0701,4.6166
cafe,Oma,N/A,-74.0697,4.6162
cafe,Cafetería Droopy,N/A,-74.0685,4.6393
cafe,N/A,N/A,-74.0684,4.6397
cafe,cofee shop steffy,N/A,-74.0547,4.7254
cafe,Groso,N/A,-74.0666,4.613
cafe,Sábila,juice,-74.0665,4.6127
cafe,Neutron,N/A,-74.0663,4.6126
cafe,Torres Azules,N/A,-74.072,4.6185
cafe,Beale patisserie,french,-74.0606,4.6565
cafe,Café l'Académie,N/A,-74.0723,4.6207
cafe,Café de la Trocha,N/A,-74.0985,4.6686
cafe,Central Coffe,N/A,-74.0719,4.6259
cafe,Camel,N/A,-74.0726,4.6257
cafe,Leonard´s 2,N/A,-74.0631,4.6384
cafe,N/A,N/A,-74.0659,4.6364
cafe,N/A,N/A,-74.0709,4.6263
cafe,Empanadas de pescado,N/A,-74.0726,4.5978
cafe,Café de la Peña,francesa,-74.0726,4.5948
cafe,Tostao’,coffee_shop,-74.0713,4.6022
cafe,Tostao’,coffee_shop,-74.1201,4.6657
cafe,Varietale,N/A,-74.0698,4.5961
cafe,Azahar Café,N/A,-74.0705,4.5981
cafe,Tostao’,coffee_shop,-74.072,4.6043
cafe,kafetao,N/A,-74.0701,4.5962
cafe,Tostao’,coffee_shop,-74.0725,4.6417
cafe,San Alberto,coffee_shop,-74.0324,4.6944
cafe,Doña Rossi,N/A,-74.1465,4.5434
cafe,Cigarreria y Cafeteria Andres,N/A,-74.142,4.6684
cafe,Grazia,N/A,-74.051,4.6734
cafe,Nona,N/A,-74.0518,4.6736
cafe,Orso,N/A,-74.0478,4.6757
cafe,Afternoon tea,N/A,-74.0476,4.6758
cafe,Le Pain Quotidien,coffee_shop,-74.0489,4.6764
cafe,Tostao’,coffee_shop,-74.0498,4.6756
cafe,Bread Fruit,coffee_shop,-74.0498,4.6759
cafe,Cafeteria y Bocados,N/A,-74.0802,4.589
cafe,Juan Valdez,N/A,-74.0539,4.6726
cafe,Tostao’,coffee_shop,-74.0484,4.6792
cafe,Icaro,N/A,-74.0494,4.6762
cafe,Colo Coffee Usaquen,N/A,-74.0316,4.6945
cafe,Fuente de Soda El Ingenio,N/A,-74.0752,4.6104
cafe,Make out,N/A,-74.0514,4.664
cafe,Dolce Stella,N/A,-74.0517,4.6625
cafe,La cava 80,N/A,-74.0518,4.663
cafe,Siuka,N/A,-74.0523,4.6624
cafe,Home baked,N/A,-74.0527,4.6626
cafe,Galería Hopulus,N/A,-74.0511,4.6636
cafe,N/A,N/A,-74.0546,4.6515
cafe,Tostao’,coffee_shop,-74.054,4.6534
cafe,El Café de la gente,"cake;coffee_shop",-74.0716,4.5947
cafe,Kangaroo kafe,N/A,-74.0631,4.6566
cafe,Distrito Chocolate,"coffee_shop;regional",-74.0587,4.6552
cafe,Al Agua Patos,N/A,-74.0538,4.6543
cafe,N/A,coffee_shop,-74.0867,4.6343
cafe,Ovejo,N/A,-74.0546,4.6688
cafe,Tostao’,coffee_shop,-74.0559,4.6685
cafe,Tostao’,coffee_shop,-74.056,4.6612
cafe,Café sobre ruedas,N/A,-74.0516,4.6673
cafe,Dynkin donuts,N/A,-74.0343,4.7406
cafe,Caramelo,N/A,-74.0351,4.7415
cafe,Divino Cafe Especial,N/A,-74.0692,4.5996
cafe,N/A,N/A,-74.0601,4.6511
cafe,Tostao’,coffee_shop,-74.0599,4.6559
cafe,Tostao’,coffee_shop,-74.0668,4.6511
cafe,Guanabana,N/A,-74.0671,4.6285
cafe,Puro Zumo,"burger;hot_dog;sandwich",-74.0393,4.7207
cafe,Tourist Coffee,N/A,-74.0677,4.6276
cafe,Candelaria Cafe,N/A,-74.0741,4.5982
cafe,Coffee y Yoga,coffee_shop,-74.0272,4.7278
cafe,La Marandina,N/A,-74.099,4.6668
cafe,Panadería las Torres,N/A,-74.0773,4.5887
cafe,Starbucks,N/A,-74.0573,4.6559
cafe,Tostao’,coffee_shop,-74.0533,4.6708
cafe,Don't be hungry,N/A,-74.0536,4.6707
cafe,Tostao',N/A,-74.0318,4.6958
cafe,FrutiFonti,N/A,-74.1434,4.6763
cafe,Juan Valdes,N/A,-74.0343,4.6919
cafe,Uganda,N/A,-74.0538,4.6655
cafe,IXACACAU,N/A,-74.053,4.6666
cafe,Zero Point TEA,N/A,-74.0532,4.6666
cafe,N/A,N/A,-74.0486,4.7258
cafe,N/A,N/A,-74.0501,4.6673
cafe,Tostao’,coffee_shop,-74.0591,4.6488
cafe,Yotto,N/A,-74.0592,4.6486
cafe,Tostao’,coffee_shop,-74.0515,4.6664
cafe,Nicolukas,N/A,-74.0319,4.6956
cafe,Oh lala,N/A,-74.0815,4.6481
cafe,Bike nerds,N/A,-74.011,4.6644
cafe,Café Moca,"coffee_shop;sandwich",-74.0505,4.6847
cafe,Pain au chocolat,"coffee_shop;bread",-74.0503,4.6976
cafe,BB Banana Bread,coffee_shop,-74.0493,4.6726
cafe,N/A,N/A,-74.0766,4.5828
cafe,Oma,N/A,-74.0754,4.6321
cafe,Starbucks,coffee_shop,-74.1199,4.6837
cafe,Tostao’,coffee_shop,-74.0694,4.6108
cafe,Panadería Suprema,"regional;colombian",-74.0446,4.7226
cafe,JJ,N/A,-74.1239,4.7434
cafe,DONDE EL GORDO,N/A,-74.1241,4.7433
cafe,N/A,N/A,-74.1248,4.7435
cafe,Tostao’,coffee_shop,-74.0729,4.6508
cafe,N/A,N/A,-74.0781,4.6928
cafe,Juan Valdez Café,coffee_shop,-74.1256,4.6532
cafe,Antojitos Paisas,coffee_shop,-74.1678,4.5725
cafe,N/A,N/A,-74.169,4.5728
cafe,N/A,N/A,-74.1746,4.5762
cafe,Mesa Salvaje,"breakfast;cake;coffee_shop;international;tea",-74.0607,4.6407
cafe,Tostao’,coffee_shop,-74.1095,4.6617
cafe,Colo Coffee,N/A,-74.0593,4.6549
cafe,Colo Coffee,N/A,-74.0545,4.6679
cafe,Tourist Coffee,N/A,-74.054,4.6537
cafe,Dark Bean Coffee,N/A,-74.0748,4.641
cafe,Arte y Pasion Cafe,N/A,-74.0774,4.5983
cafe,Azahar Cafe,N/A,-74.0525,4.6628
cafe,guanabana,N/A,-74.0624,4.6552
cafe,Galeria café,"coffee_shop;tea",-74.071,4.5955
cafe,T4 Tea For U,bubble_tea,-74.1022,4.6477
cafe,Starbucks,coffee_shop,-74.1014,4.6473
cafe,OMA,coffee_shop,-74.0897,4.6313
cafe,TOSTAO' Pan & Cafe,"cake;coffee_shop;local;regional",-74.0613,4.6948
cafe,San Alberto - exclusivamente,N/A,-74.0725,4.6026
cafe,Panes y Majares,N/A,-74.1408,4.6291
cafe,Panes & Manjares,N/A,-74.1421,4.6291
cafe,N/A,N/A,-74.0818,4.6706
cafe,Tostao’,coffee_shop,-74.0267,4.7211
cafe,Jaguar Coffer House,N/A,-74.0717,4.5981
cafe,Café del Mercado,N/A,-74.0704,4.5962
cafe,N/A,N/A,-74.0662,4.7332
cafe,N/A,N/A,-74.0419,4.7912
cafe,N/A,N/A,-74.0457,4.7913
cafe,Sin Visa,N/A,-74.0597,4.6562
cafe,Pan de Dios,"breakfast;coffee_shop",-74.0639,4.6591
cafe,Frutería y Cafetería Mora Dulce,"breakfast;coffee_shop",-74.0655,4.6671
cafe,Café Herencia,N/A,-74.0711,4.5955
cafe,Café del Eje,N/A,-74.0452,4.6929
cafe,Tropicália Coffee Co,N/A,-74.0508,4.6639
cafe,Coffeestylers,N/A,-74.0702,4.6447
cafe,Cafe Voluntad,N/A,-74.0653,4.6424
cafe,Caffa,N/A,-74.0522,4.6793
cafe,Tostao’,coffee_shop,-74.056,4.6658
cafe,Tostao’,coffee_shop,-74.0639,4.6496
cafe,Tostao',N/A,-74.0521,4.6793
cafe,"Cafetería, Cigarrería y Dulcería (CyL)",N/A,-74.0893,4.6222
cafe,My Coffee,coffee_shop,-74.09,4.6215
cafe,Le Grand,coffee_shop,-74.0479,4.6733
cafe,Tostao’,coffee_shop,-74.1021,4.6475
restaurant,Ruta,N/A,-74.0684,4.6254
restaurant,Boho Food Market,N/A,-74.0307,4.6968
restaurant,Dialimentos,N/A,-74.0441,4.7832
restaurant,Jeno's Pizza,pizza,-74.0442,4.761
restaurant,Cafetería Central,N/A,-74.0648,4.6283
restaurant,Andrés Exprés,regional,-74.0365,4.8063
restaurant,Brangus,steak,-74.0306,4.8122
restaurant,N/A,N/A,-74.0741,4.7252
restaurant,N/A,steak_house,-74.1594,4.6861
restaurant,Magolita Las Ojonas,regional,-74.0803,4.6224
restaurant,Restaurante veterinaria,"regional;sandwich",-74.0856,4.6368
restaurant,N/A,N/A,-74.1012,4.7126
restaurant,N/A,N/A,-74.0905,4.6993
restaurant,El Arbolito,N/A,-74.0812,4.6376
restaurant,La Parrilla Moderna,N/A,-74.119,4.6876
restaurant,Crepes & Waffles,regional,-74.0492,4.7008
restaurant,Teriyaki,asian,-74.0492,4.7011
restaurant,WOK,asian,-74.05,4.7003
restaurant,Burguer Market,burger,-74.0503,4.6776
restaurant,La Casa de la Abuela,N/A,-74.0667,4.6137
restaurant,Archie's,italian,-74.0305,4.7166
restaurant,Vegetariano Vega,N/A,-74.0635,4.6456
restaurant,Vegetariano Ajonjoli,N/A,-74.0637,4.6456
restaurant,Desayunadero De La 42,N/A,-74.0589,4.6535
restaurant,Vegetartiano Novilunio,N/A,-74.0582,4.6544
restaurant,Shi Zen,N/A,-74.0562,4.6573
restaurant,Crepes & Waffles,"crepe;ice_cream",-74.056,4.6576
restaurant,Living Wrap,fast_food,-74.0564,4.6987
restaurant,Aquí es Don Pascual,N/A,-74.1175,4.624
restaurant,Aquí es Don Pascual,N/A,-74.1181,4.6238
restaurant,Aquí es Don Pascual,N/A,-74.1172,4.6245
restaurant,Cafeteria Restaurante,N/A,-74.0684,4.6307
restaurant,Ali babá y los 40 Sabores,N/A,-74.0688,4.6306
restaurant,Restaurante Akyes,N/A,-74.0689,4.6308
restaurant,Orozco,N/A,-74.1363,4.5957
restaurant,Club Sede Social,Buffet,-74.0691,4.6281
restaurant,El ciervo y el oso,N/A,-74.0659,4.6277
restaurant,Cafe y lasagnas,N/A,-74.0657,4.6284
restaurant,Comidas il toscana,N/A,-74.0657,4.6285
restaurant,Cafetería Delicias Tropicales,N/A,-74.0658,4.6287
restaurant,zarzamora,N/A,-74.0655,4.6289
restaurant,dogger,N/A,-74.0655,4.6288
restaurant,pizza pizza,N/A,-74.0654,4.6288
restaurant,sr wok,N/A,-74.0653,4.6288
restaurant,country,N/A,-74.0653,4.6288
restaurant,Presto,N/A,-74.0655,4.6286
restaurant,turkive,N/A,-74.0654,4.6286
restaurant,pija pariente,N/A,-74.1382,4.5835
restaurant,Toscana,N/A,-74.0646,4.6323
restaurant,Restaurante Cafe Bar San Sebastian,N/A,-74.0686,4.6325
restaurant,Pollo asado,regional,-74.0681,4.6253
restaurant,Corazón contento,N/A,-74.0677,4.629
restaurant,N/A,"ramen;noodle",-74.1295,4.6324
restaurant,Don Manuel,N/A,-74.1292,4.6323
restaurant,N/A,N/A,-74.1485,4.6758
restaurant,Asadero Gran Sabor Santandereano,N/A,-74.0674,4.6293
restaurant,ASADERO CARNES SOGA Y MAMONA,N/A,-74.1474,4.6739
restaurant,Sandwich Gourmet,N/A,-74.0664,4.6311
restaurant,Nueva Chosika,regional,-74.0663,4.6313
restaurant,Gula Gula,regional,-74.0664,4.6312
restaurant,RESTAURANTE SANTANDEREANO,regional,-74.0276,4.7587
restaurant,Casa amarilla,N/A,-74.0271,4.7579
restaurant,Pescadería,fish_and_chips,-74.1354,4.5955
restaurant,Primos Pizza,N/A,-74.1501,4.5751
restaurant,N/A,N/A,-74.1034,4.5873
restaurant,N/A,N/A,-74.1034,4.5875
restaurant,Norwood Pizza,N/A,-74.1048,4.5857
restaurant,Tronquitos y sabor,regional,-74.1355,4.5975
restaurant,El Porvenir,regional,-74.1361,4.5968
restaurant,el rey del pollo,N/A,-74.1214,4.7258
restaurant,yokomo,N/A,-74.1213,4.7257
restaurant,Al Monte,N/A,-74.078,4.6341
restaurant,Delicias del Mar,N/A,-74.133,4.6152
restaurant,LA FLOR DEL CAMPO,N/A,-74.1481,4.6734
restaurant,comedor comunitario,N/A,-74.1009,4.7066
restaurant,"""El Rico Broaster"".",chicken,-74.173,4.5921
restaurant,"""El pollo Campero""",chicken,-74.1731,4.5921
restaurant,"""Parrilla Broaster""",chicken,-74.1731,4.5918
restaurant,Asadero La flor del Llano,N/A,-74.1839,4.6073
restaurant,"""Springfield Pizza""",pizza,-74.1729,4.5918
restaurant,N/A,N/A,-74.0607,4.6319
restaurant,Kin Men,N/A,-74.0785,4.634
restaurant,Crepes & Waffles ArteSano,N/A,-74.0546,4.6524
restaurant,La Fama,N/A,-74.0566,4.6482
restaurant,Armadillo,N/A,-74.0539,4.654
restaurant,La Revolución de la Cuchara,N/A,-74.0629,4.6467
restaurant,Vegetariano Espiga,N/A,-74.0618,4.6467
restaurant,Trento,N/A,-74.0665,4.6249
restaurant,La Mona,N/A,-74.0553,4.6673
restaurant,Chamois,N/A,-74.0522,4.6681
restaurant,Donde Canta la Rana,regional,-74.107,4.588
restaurant,Fritanga Gourmet,regional,-74.0451,4.7265
restaurant,Sabrosito,N/A,-74.0568,4.6705
restaurant,Gusto's,N/A,-74.0682,4.6395
restaurant,Restaurante el buen sabor de la 52,N/A,-74.068,4.6395
restaurant,Coffe Bar Mejilk,coffee_shop,-74.0666,4.6328
restaurant,torres del este,regional,-74.0635,4.6328
restaurant,Tu parrilla,N/A,-74.0637,4.6322
restaurant,parados 4G,N/A,-74.0637,4.6325
restaurant,Big Bufalo,regional,-74.0636,4.6324
restaurant,jesus adrian,regional,-74.0627,4.6324
restaurant,Fruteria Super Cappy,N/A,-74.0666,4.6327
restaurant,El rancho de mi pacifico,pescado,-74.1389,4.5937
restaurant,RESTAURANTE,regional,-74.1391,4.5932
restaurant,Killer Sandwich,sandwich,-74.0658,4.633
restaurant,Alianza de beneza,N/A,-74.0674,4.6377
restaurant,ricuras de la 50,burger,-74.0675,4.6377
restaurant,casa gourmet arte y estilo,N/A,-74.0686,4.6379
restaurant,El Brasero,Pollo,-74.1393,4.5933
restaurant,Asaderi Surti sabor la 47,N/A,-74.0643,4.6339
restaurant,Imperio otaku,N/A,-74.0643,4.6339
restaurant,Tao sierra,N/A,-74.0644,4.6339
restaurant,Choco Sabor,N/A,-74.1425,4.6208
restaurant,Doña Emilse,N/A,-74.1424,4.6208
restaurant,Sazón Paisa,N/A,-74.1428,4.6213
restaurant,Super rico de la 135,N/A,-74.0889,4.7349
restaurant,N/A,N/A,-74.0883,4.7346
restaurant,Antojitos Mexicanos,regional,-74.0686,4.6369
restaurant,Apetitos de la Chef,regional,-74.0684,4.6365
restaurant,chicago's pizza la no 1,N/A,-74.0834,4.5645
restaurant,asadero de pollos y restaurante pipe,N/A,-74.0828,4.5642
restaurant,Marly 51,N/A,-74.0641,4.6375
restaurant,Happy Green,N/A,-74.0641,4.6374
restaurant,La esquina del chef,regional,-74.1005,4.7347
restaurant,N/A,N/A,-74.1547,4.6299
restaurant,SurtiBroster,american,-74.0678,4.6364
restaurant,Chorizo Star,regional,-74.0676,4.6364
restaurant,Amigos de la 15,regional,-74.0676,4.6383
restaurant,surtidora de aves la 22,N/A,-74.1685,4.6071
restaurant,Archies,N/A,-74.0467,4.7227
restaurant,Arepas llenitas de gracía,N/A,-74.0633,4.6369
restaurant,Panadería Tody Pan,N/A,-74.063,4.6361
restaurant,Restaurante Paladar Tropical,N/A,-74.0627,4.6362
restaurant,Recreo de los Tomasinos,N/A,-74.0639,4.6381
restaurant,N/A,N/A,-74.0673,4.6397
restaurant,Comidas Rapidas,regional,-74.0931,4.5986
restaurant,PILON,burger,-74.064,4.635
restaurant,Pescadera La Santanderiana,fish_and_chips,-74.0931,4.5984
restaurant,Piqueteadero Doña Anita,regional,-74.0932,4.5985
restaurant,Rapeexpress,regional,-74.1448,4.6048
restaurant,M&M,regional,-74.1449,4.605
restaurant,Surtidora de aves - 22,regional,-74.1438,4.6056
restaurant,Punto 50,N/A,-74.067,4.6382
restaurant,Croc´ant Pizza,pizza,-74.0639,4.6379
restaurant,LA ALBAHACA,N/A,-74.12,4.6656
restaurant,AVOCATO,N/A,-74.1199,4.6655
restaurant,PONG YANG,N/A,-74.1194,4.6652
restaurant,LA GALLINA SEÑORIAL,N/A,-74.119,4.6647
restaurant,Josefa,chicken,-74.1334,4.5853
restaurant,Kokoriko,chicken,-74.0728,4.7154
restaurant,Roastbeef Burgers,burger,-74.0704,4.7142
restaurant,Sabrosito,N/A,-74.0693,4.6141
restaurant,Protamales,N/A,-74.075,4.6378
restaurant,Sopas de Mamá y Postres de la Abuela,regional,-74.0755,4.6327
restaurant,Piqueteadero Guadalajara,regional,-74.1491,4.6807
restaurant,Piqueteadero La Mona,regional,-74.1492,4.6806
restaurant,N/A,regional,-74.1493,4.6805
restaurant,Club Suboficiales Policía,N/A,-74.0757,4.6281
restaurant,San Telmo D.C.,N/A,-74.0631,4.6501
restaurant,La Rioja,regional,-74.0611,4.6496
restaurant,N/A,N/A,-74.1313,4.5817
restaurant,N/A,N/A,-74.1314,4.5827
restaurant,"22",regional,-74.0654,4.6048
restaurant,Café & Crepes Usaquén,N/A,-74.0383,4.6889
restaurant,WOK,asian,-74.0374,4.7195
restaurant,Cucarrón.,N/A,-74.067,4.6303
restaurant,Kokoriko Mimo's,N/A,-74.0666,4.6302
restaurant,Comedor Matemáticas,"regional;sandwich",-74.0826,4.6377
restaurant,Restaurante ciencias económicas,"regional;sandwich",-74.081,4.637
restaurant,El Doraditos,chicken,-74.1422,4.6068
restaurant,N/A,N/A,-74.0646,4.6351
restaurant,Asadero la vega Santandereana,N/A,-74.068,4.629
restaurant,Danesas,N/A,-74.0656,4.6377
restaurant,Refugio Marino,regional,-74.0662,4.638
restaurant,Cevicheria Don calamar,comida_marina,-74.1065,4.6821
restaurant,Asadero El Saguileño,N/A,-74.1061,4.6828
restaurant,Country Hamburguesas,N/A,-74.1061,4.6828
restaurant,Comidas cooper,N/A,-74.0675,4.6364
restaurant,Restaurante Gourtmet,N/A,-74.0677,4.6364
restaurant,N/A,N/A,-74.0675,4.6374
restaurant,Antonas,N/A,-74.0661,4.6365
restaurant,El mojarro,N/A,-74.122,4.6178
restaurant,Leños Palos,N/A,-74.1421,4.6372
restaurant,Comedorcito Paisa,regional,-74.0673,4.6287
restaurant,Casa Vieja,N/A,-74.0656,4.6292
restaurant,Santafe,N/A,-74.0643,4.6346
restaurant,Monte Castilla,N/A,-74.1421,4.6428
restaurant,Maria Kanela,N/A,-74.142,4.6427
restaurant,MI VIEJO TANTO PARRILLA,N/A,-74.075,4.6282
restaurant,zuhause,N/A,-74.1045,4.6845
restaurant,pronti broster,broster,-74.1047,4.6846
restaurant,asadero villa luz,N/A,-74.1055,4.6839
restaurant,Vegetariano Sesamo,N/A,-74.0714,4.6008
restaurant,Crepes & Waffles,"crepe;ice_cream",-74.0709,4.6005
restaurant,Vegetariano Naturalmente,N/A,-74.0675,4.6165
restaurant,Patacones,N/A,-74.0311,4.6963
restaurant,N/A,N/A,-74.0385,4.6887
restaurant,KFC,fast_food,-74.0397,4.7209
restaurant,Cali vea,fried_chicken,-74.0399,4.7206
restaurant,Tadeo Pizza,italian_pizza,-74.0674,4.6074
restaurant,Crepes & Waffles,N/A,-74.0985,4.6398
restaurant,N/A,N/A,-74.0985,4.6397
restaurant,TGI Friday's,american,-74.0987,4.6401
restaurant,La Brasa Roja,N/A,-74.1419,4.6763
restaurant,Yanuba,N/A,-74.0448,4.7333
restaurant,Frisby,fried_chicken,-74.0457,4.7294
restaurant,Pio Rikos,N/A,-74.0252,4.7045
restaurant,Del Rodeo,bbq,-74.1182,4.6891
restaurant,Santa Rita,barbecue,-74.1435,4.6744
restaurant,Asadero El motorista,steak_house,-74.0985,4.6369
restaurant,Chatos pizza,N/A,-74.1325,4.5796
restaurant,Roque Junior,N/A,-74.1325,4.5796
restaurant,Restaurante,N/A,-74.1327,4.5797
restaurant,N/A,N/A,-74.1322,4.5799
restaurant,N/A,N/A,-74.1319,4.58
restaurant,Donde Gary,N/A,-74.1317,4.5801
restaurant,Locos de Asar,N/A,-74.0398,4.7291
restaurant,PPC,N/A,-74.0699,4.6984
restaurant,Coctel del Mar,"thai;seafood;sushi",-74.0439,4.7607
restaurant,Luna,N/A,-74.0536,4.6673
restaurant,Sr Taco!,N/A,-74.0435,4.7385
restaurant,Comedor Comunitario Muzú-Tejar,N/A,-74.1255,4.6016
restaurant,Donde me de la Gana,N/A,-74.0319,4.6966
restaurant,Frutty Dorados de la 167,N/A,-74.0636,4.7506
restaurant,Leonardelos,N/A,-74.0615,4.7502
restaurant,Restaurante Zoé,N/A,-74.0399,4.6893
restaurant,Moneda de Oro,N/A,-74.0434,4.7367
restaurant,Pizza a'Parque,"italian;pizza;regional",-74.0592,4.7427
restaurant,Cali Vea,N/A,-74.0642,4.7279
restaurant,La Gran Parrilla Santandereana,N/A,-74.0633,4.7444
restaurant,Carbon Place,N/A,-74.035,4.7264
restaurant,Restaurante los Cerezos,N/A,-74.0694,4.628
restaurant,El meson del rey,N/A,-74.0695,4.6284
restaurant,wingz,N/A,-74.0666,4.7227
restaurant,Pizza Hut,pizza,-74.0481,4.6985
restaurant,Cali Vea,chicken,-74.0445,4.7327
restaurant,Yellow Restaurant,N/A,-74.052,4.7229
restaurant,El Pechirojo,N/A,-74.0443,4.7326
restaurant,Mr. Bross,N/A,-74.0511,4.6991
restaurant,Villa Gourmet 161,N/A,-74.041,4.7405
restaurant,Brother's,N/A,-74.0277,4.7372
restaurant,Pollo Olympico,N/A,-74.0451,4.6912
restaurant,Las 2 Avenidas,N/A,-74.0267,4.7382
restaurant,La Cocina de Dianis,N/A,-74.0439,4.7495
restaurant,Cafeteria Mecatto,N/A,-74.0427,4.7483
restaurant,Monte & Mar,N/A,-74.042,4.7404
restaurant,Brasas y Llamas,N/A,-74.0402,4.7399
restaurant,Thai & Sushi Express,burger,-74.0448,4.692
restaurant,Cali Mio,N/A,-74.0447,4.6922
restaurant,Pizza Gourmet,N/A,-74.0466,4.6979
restaurant,Romana Pizzeria,N/A,-74.0274,4.7328
restaurant,Green Mix,N/A,-74.0542,4.6573
restaurant,Donde Los Green,N/A,-74.072,4.7229
restaurant,Patacones,N/A,-74.0604,4.6469
restaurant,Well Alone,N/A,-74.0605,4.6469
restaurant,JC,N/A,-74.069,4.7201
restaurant,La Quiche,N/A,-74.0645,4.6311
restaurant,super brasas,chicken,-74.1223,4.7177
restaurant,surtidora de aves,N/A,-74.1217,4.7178
restaurant,BW,N/A,-74.0623,4.6413
restaurant,San Lorenzo,N/A,-74.0694,4.6164
restaurant,Mr. Parrilla,N/A,-74.0747,4.6949
restaurant,Calivea,N/A,-74.1361,4.6394
restaurant,WOK,N/A,-74.1023,4.6478
restaurant,El Corral Gourmet,N/A,-74.1016,4.6475
restaurant,N/A,N/A,-74.07,4.628
restaurant,Uoso,N/A,-74.0565,4.6645
restaurant,Carnitas,N/A,-74.0603,4.6589
restaurant,FX Pizza Gourmet,N/A,-74.0738,4.6239
restaurant,Las Acacias,N/A,-74.077,4.6267
restaurant,Deli Asado,N/A,-74.0951,4.6786
restaurant,Antonia Cafe Gormet,N/A,-74.0762,4.6306
restaurant,Auto Pan,N/A,-74.044,4.6998
restaurant,Deli Andes,N/A,-74.0909,4.6846
restaurant,Rairos,N/A,-74.088,4.6871
restaurant,Las Delicias,N/A,-74.0852,4.6858
restaurant,Risas del Titan,N/A,-74.0883,4.6933
restaurant,La Brasa Roja,N/A,-74.0496,4.6991
restaurant,N/A,N/A,-74.0698,4.6327
restaurant,La 42,N/A,-74.1591,4.6144
restaurant,Doña gallina,N/A,-74.1593,4.6147
restaurant,Empanadas del palenque,N/A,-74.1592,4.6141
restaurant,Broaster,N/A,-74.1586,4.6137
restaurant,Aqui es,N/A,-74.159,4.614
restaurant,Gourmet de mi tierra,N/A,-74.1028,4.6066
restaurant,costa rica,N/A,-74.1039,4.6064
restaurant,Tacos Burguer,"burger;mexicana",-74.1238,4.5991
restaurant,Croketos,chicken,-74.124,4.5989
restaurant,Asadero Los Cachilapos,barbecue,-74.1242,4.5987
restaurant,Broaster,chicken,-74.1236,4.5992
restaurant,Pizzeria R&R´s,pizza,-74.1234,4.599
restaurant,Pescaderia El sabor Del Pacifico Colombiano,fish_and_chips,-74.1243,4.5986
restaurant,Restaurante Hong Fu,chinese,-74.1246,4.5983
restaurant,El Gran Sazón,N/A,-74.1241,4.5997
restaurant,Arepa: Parrilla y café,N/A,-74.125,4.5977
restaurant,Restaurante Peruano,international,-74.1248,4.5985
restaurant,Asadero Y Piqueteadero Los Capachos,N/A,-74.1242,4.5992
restaurant,Restaurante Universitário,N/A,-74.1244,4.5997
restaurant,BAMBÚ,N/A,-74.1221,4.7175
restaurant,CREPES Y BECHAMEL,N/A,-74.122,4.7174
restaurant,GRAN BROASTER,N/A,-74.1214,4.7183
restaurant,BRASERO ROJO,N/A,-74.1216,4.7179
restaurant,PESCADERIA Y CEVICHERIA KIRKANO,N/A,-74.1215,4.718
restaurant,El Paisa,N/A,-74.1042,4.59
restaurant,Los Leños Del Sabor,N/A,-74.1042,4.5906
restaurant,La Sierra,N/A,-74.0723,4.6327
restaurant,Restaurante san martin,N/A,-74.1233,4.5989
restaurant,Heladeria santa rita,N/A,-74.1232,4.5988
restaurant,full pizza desde 2001,pizza,-74.1231,4.5987
restaurant,La otra brasa,N/A,-74.1229,4.5985
restaurant,Comidas mate,N/A,-74.1231,4.5984
restaurant,asadero la chispa del sabor,N/A,-74.1215,4.5966
restaurant,Asadero Pollos tropical,N/A,-74.067,4.7229
restaurant,El bodegon del abuelo,N/A,-74.0672,4.7229
restaurant,N/A,N/A,-74.1398,4.608
restaurant,Juanchos,pizza,-74.1055,4.7153
restaurant,Tio Pollo Burguer,N/A,-74.1051,4.7153
restaurant,N/A,N/A,-74.103,4.5898
restaurant,El Gordo,N/A,-74.0744,4.6195
restaurant,Los Antojos de Jinna,N/A,-74.0735,4.6195
restaurant,Restaurante,N/A,-74.0589,4.6625
restaurant,Sanavi Restaurante,N/A,-74.0527,4.7289
restaurant,El Brasero al Rojo,N/A,-74.0527,4.7323
restaurant,Mr. Pollo,N/A,-74.053,4.7285
restaurant,Lena Verde,N/A,-74.0636,4.663
restaurant,Buffalo Wild Wings,wings,-74.0539,4.6684
restaurant,Barcelona,N/A,-74.0505,4.7314
restaurant,Roja,N/A,-74.0523,4.7326
restaurant,Polloriente,N/A,-74.0524,4.7327
restaurant,Beer Lounge,N/A,-74.0536,4.6687
restaurant,La Trampa Platinum,N/A,-74.0552,4.6694
restaurant,El Brazón Ardiente,N/A,-74.0786,4.6896
restaurant,El Sol de Nápoles,N/A,-74.0762,4.6921
restaurant,Parrilla Al Carbon,N/A,-74.0554,4.734
restaurant,Mola,pizza,-74.0575,4.6708
restaurant,El Santandereano,N/A,-74.0728,4.7106
restaurant,Casa Cocina China,N/A,-74.0721,4.7095
restaurant,Roll's,N/A,-74.0651,4.664
restaurant,Canoas,N/A,-74.0326,4.7409
restaurant,Santandereana,N/A,-74.0362,4.7419
restaurant,La Guabina Boyacense,N/A,-74.0934,4.6851
restaurant,N/A,N/A,-74.0406,4.7436
restaurant,Cosa Rica,N/A,-74.039,4.7416
restaurant,Pluma Roja,N/A,-74.0701,4.7132
restaurant,Llanerada 130,N/A,-74.0703,4.7221
restaurant,Aposentos Parrilla,N/A,-74.0481,4.7288
restaurant,Mister Liu Restaurante,N/A,-74.045,4.7274
restaurant,Big Broasted,N/A,-74.1,4.6799
restaurant,Holandesa Gourmet,N/A,-74.0456,4.7243
restaurant,Food Express,N/A,-74.0836,4.6318
restaurant,Asadero Mi Rancho Llanero,N/A,-74.0993,4.6732
restaurant,Club LA 77,N/A,-74.0619,4.6656
restaurant,Braseo Caleño,N/A,-74.0998,4.6725
restaurant,Samuel Hamburguesas,N/A,-74.0655,4.6675
restaurant,Sazon Arte,N/A,-74.0452,4.7243
restaurant,Imperio Inka,N/A,-74.0684,4.6712
restaurant,Club de Tejo LA 76,N/A,-74.0644,4.6669
restaurant,N/A,N/A,-74.0696,4.7185
restaurant,Parrilla Bar 129,N/A,-74.0708,4.7202
restaurant,Mi Ranchito,barbecue,-74.07,4.7148
restaurant,28 de Julio,N/A,-74.0425,4.7221
restaurant,Capital,N/A,-74.0424,4.7221
restaurant,Terra Club,N/A,-74.1059,4.6701
restaurant,WoKing,N/A,-74.0472,4.7194
restaurant,De Xin Restaurant,N/A,-74.0471,4.7201
restaurant,Compañia del Sabor,N/A,-74.047,4.7202
restaurant,Carnes Parilla,N/A,-74.0468,4.7216
restaurant,Normandia Pescaderia,N/A,-74.1053,4.6714
restaurant,N/A,N/A,-74.0451,4.7231
restaurant,Toro,N/A,-74.0477,4.7204
restaurant,N/A,N/A,-74.0476,4.7194
restaurant,El Chócolo,N/A,-74.0424,4.7217
restaurant,Buffalo Wings,N/A,-74.0466,4.7192
restaurant,Ehúmaki,sushi,-74.0466,4.7197
restaurant,Asia Ri,N/A,-74.0497,4.6941
restaurant,Pizzas,N/A,-74.0685,4.7184
restaurant,Vaquero Parrilla,N/A,-74.0509,4.6869
restaurant,Philippe,N/A,-74.0472,4.6939
restaurant,Azzvarro,N/A,-74.0489,4.6947
restaurant,Semaforo en Rojo,N/A,-74.0395,4.7228
restaurant,Crik,N/A,-74.042,4.7236
restaurant,La Casita,N/A,-74.0423,4.7236
restaurant,SH,N/A,-74.0424,4.7222
restaurant,180 Pizza Gourmet,N/A,-74.092,4.7005
restaurant,La Pampa,N/A,-74.0677,4.72
restaurant,Wingz,N/A,-74.0663,4.7232
restaurant,Casa Embajador,N/A,-74.094,4.7098
restaurant,Bartues,N/A,-74.0502,4.6928
restaurant,Semolina,N/A,-74.047,4.6933
restaurant,Cabaret,N/A,-74.0478,4.6937
restaurant,Bedoya,N/A,-74.0675,4.6719
restaurant,Altar de Dios,N/A,-74.0677,4.672
restaurant,Como...en Casa,N/A,-74.0929,4.6981
restaurant,Pollos El Carmelo,N/A,-74.0565,4.7167
restaurant,N/A,N/A,-74.0588,4.7138
restaurant,El Cañaveral,N/A,-74.064,4.7169
restaurant,Asaderos Mi Gaban,N/A,-74.0984,4.6914
restaurant,Lengupã,N/A,-74.0985,4.6912
restaurant,El Bogabante,seafood,-74.0563,4.7253
restaurant,El Fogón Rojo,N/A,-74.0321,4.7405
restaurant,El Caracal Rojo,N/A,-74.0373,4.72
restaurant,Harvey,burger,-74.0547,4.7248
restaurant,Aves y Parrilla,N/A,-74.0532,4.7243
restaurant,Azzurro,N/A,-74.0493,4.6948
restaurant,Home Burger,burger,-74.0348,4.7189
restaurant,N/A,N/A,-74.043,4.7432
restaurant,El Glotón,N/A,-74.0428,4.7441
restaurant,N/A,N/A,-74.0434,4.7485
restaurant,Sierra Nevada,N/A,-74.04,4.721
restaurant,Sabor & Lena,N/A,-74.0629,4.6929
restaurant,Muffins y Panes,N/A,-74.0629,4.6921
restaurant,Pio,N/A,-74.0568,4.7252
restaurant,Burger Place,N/A,-74.0555,4.7247
restaurant,Hang Shing,N/A,-74.0658,4.6858
restaurant,Piostop Parrilla,N/A,-74.0531,4.7273
restaurant,N/A,N/A,-74.0518,4.7221
restaurant,Aroma,N/A,-74.0709,4.6567
restaurant,KFC,chicken,-74.1019,4.6924
restaurant,Restaurante Pescadería,N/A,-74.0545,4.7263
restaurant,Campo Trece,N/A,-74.0542,4.7263
restaurant,Restaurante Bar Lochis,N/A,-74.053,4.7259
restaurant,Toroburguer,N/A,-74.0534,4.7244
restaurant,Black & White,N/A,-74.0546,4.7248
restaurant,LLamarada,N/A,-74.056,4.7261
restaurant,La Parva,N/A,-74.0819,4.6314
restaurant,Musica en Vive,N/A,-74.0665,4.6927
restaurant,Carbon & Sabor,N/A,-74.0524,4.7219
restaurant,La Brasa Roja,N/A,-74.1073,4.7065
restaurant,Sammy-S-S,N/A,-74.0854,4.7218
restaurant,La Casa del Pollo,N/A,-74.089,4.7237
restaurant,Krujy,N/A,-74.089,4.7246
restaurant,Surti Aves 22,N/A,-74.0889,4.7248
restaurant,Paraiso Express,N/A,-74.0522,4.7225
restaurant,Brasas Llaneras,N/A,-74.0524,4.7226
restaurant,La Brasa Al Rojo,N/A,-74.0528,4.7228
restaurant,Mr. Chicken,N/A,-74.0824,4.6299
restaurant,N/A,N/A,-74.0926,4.7224
restaurant,Tostadora de Aves,N/A,-74.0984,4.7327
restaurant,Dory Broaster,N/A,-74.0994,4.7304
restaurant,Restaurante,N/A,-74.0781,4.6255
restaurant,Don Jacobo,N/A,-74.0464,4.7246
restaurant,La Jugueteria,N/A,-74.0449,4.7304
restaurant,Carbon y Pez,N/A,-74.0903,4.6428
restaurant,Rancho BBQ,N/A,-74.0916,4.6447
restaurant,Farándula,N/A,-74.0926,4.6462
restaurant,Parrillada Marina,N/A,-74.0931,4.6469
restaurant,Restaurante Punto Esmeralda,N/A,-74.0932,4.6472
restaurant,Restaurante Mi Cali,N/A,-74.0936,4.6478
restaurant,Avellana,N/A,-74.0936,4.6478
restaurant,La Gran Llanera,N/A,-74.1512,4.6944
restaurant,N/A,N/A,-74.1425,4.6879
restaurant,Restaurante 2000,N/A,-74.1,4.7327
restaurant,Mil Delicias,N/A,-74.0985,4.7297
restaurant,Club Gourmet,N/A,-74.0543,4.7117
restaurant,El Portal de Doña Gallina,N/A,-74.1082,4.7057
restaurant,Comboy Pizza,N/A,-74.1035,4.6936
restaurant,La Brasa Roja,N/A,-74.1016,4.6922
restaurant,El Carbonazo,N/A,-74.0904,4.7179
restaurant,Parrillisimo,N/A,-74.1029,4.6874
restaurant,Restaurante Las Brasas del Rincón,N/A,-74.0899,4.7179
restaurant,Caribe Restaurante Alta Cocina Artesanal Pescadería,N/A,-74.1009,4.6596
restaurant,El Caporal,N/A,-74.0997,4.6588
restaurant,Surti Aves 22,N/A,-74.0625,4.6912
restaurant,Chop Suey,N/A,-74.0625,4.6895
restaurant,La Gallina Dorada,N/A,-74.0955,4.7254
restaurant,Calimio,N/A,-74.1088,4.6698
restaurant,La Llama Americana,N/A,-74.0954,4.7251
restaurant,Restaurante Parrilla Sunuba,N/A,-74.0939,4.7203
restaurant,La Villa del Pan,N/A,-74.0973,4.7263
restaurant,Gran Parilla,N/A,-74.0872,4.7309
restaurant,El Brasón,N/A,-74.0887,4.7316
restaurant,Restaurante La 26,N/A,-74.1012,4.6538
restaurant,La Casita,N/A,-74.066,4.6405
restaurant,Akikiriki,N/A,-74.0878,4.6477
restaurant,Restaurante Gourmet,N/A,-74.0946,4.6504
restaurant,K-baña VIP,N/A,-74.0635,4.6513
restaurant,Q Bano,N/A,-74.0636,4.6507
restaurant,KungFu Wok,N/A,-74.0724,4.645
restaurant,Fruteria Mickey Mouse,N/A,-74.0858,4.7343
restaurant,Restaurante Estrella Fija,N/A,-74.0861,4.7335
restaurant,Chung King,chinese,-74.0731,4.6491
restaurant,Establo Burger,burger,-74.0794,4.6802
restaurant,Fisby,N/A,-74.0769,4.6425
restaurant,Casa Luna B,N/A,-74.0804,4.6522
restaurant,Surtidora de Aves 22,N/A,-74.0802,4.6522
restaurant,Tacos Tostones,N/A,-74.0798,4.6521
restaurant,Llanerada 63,N/A,-74.0796,4.6521
restaurant,La Tranpa Gold,N/A,-74.0768,4.6421
restaurant,Puerto Madero,N/A,-74.0713,4.642
restaurant,Mister Chen Chino,N/A,-74.1224,4.7078
restaurant,La Chispa del Sabor,N/A,-74.1403,4.7118
restaurant,Restaurante Rico,N/A,-74.072,4.6253
restaurant,Penelope,N/A,-74.0763,4.6412
restaurant,Arroz Paisa,N/A,-74.0759,4.6411
restaurant,Me Encanta Comida Fusión,N/A,-74.0734,4.6208
restaurant,La Cocina de su Casa Restaurante,N/A,-74.1089,4.6908
restaurant,San Diego,N/A,-74.1185,4.6945
restaurant,El Gallineral,N/A,-74.117,4.6946
restaurant,Burger Fresh's,N/A,-74.1314,4.7023
restaurant,Brazón & Broaster,N/A,-74.1306,4.7018
restaurant,La Brasa Roja,N/A,-74.105,4.6004
restaurant,Pizza Estofada,N/A,-74.1145,4.6055
restaurant,Delicias de la Vega,N/A,-74.1149,4.6059
restaurant,Riper Brasas,N/A,-74.1169,4.7045
restaurant,La Casa Del Chorizo,N/A,-74.117,4.704
restaurant,Mi Rancho,N/A,-74.1147,4.7016
restaurant,Los Pargos,N/A,-74.116,4.7036
restaurant,Donde Omar Restaurante,N/A,-74.0942,4.5977
restaurant,Restaurante Primera Casa,N/A,-74.1091,4.6096
restaurant,Maxi Tacos,N/A,-74.1016,4.6037
restaurant,Pasaje,"burger;pizza",-74.0675,4.6074
restaurant,La Bogotanita,N/A,-74.1061,4.6025
restaurant,Fogón y Tizón del Restrepo,N/A,-74.1013,4.5881
restaurant,Asadero Saboriko,N/A,-74.0679,4.5848
restaurant,Restaurante Piqueteadero,N/A,-74.0678,4.5851
restaurant,asadero el dorado,chicken,-74.0721,4.5806
restaurant,Restaurante La Mona,N/A,-74.0719,4.5808
restaurant,El Novillon De Los Laches,N/A,-74.0686,4.5841
restaurant,Real Barril,N/A,-74.0968,4.5865
restaurant,Donde Chava,N/A,-74.057,4.724
restaurant,Wings,N/A,-74.0938,4.5795
restaurant,La Parrilla Gourmet,N/A,-74.0967,4.5825
restaurant,Brasaas Sazón Broaster,N/A,-74.1253,4.5785
restaurant,Soy Sabor & Brasa,N/A,-74.1151,4.5764
restaurant,Delicias Chicken Broaster,N/A,-74.1131,4.5769
restaurant,Asadero Rancho Llanero,N/A,-74.1142,4.6156
restaurant,Chicken Broaster,N/A,-74.1259,4.5805
restaurant,Mag Pollo,N/A,-74.0948,4.5996
restaurant,Parrilla Vamas,N/A,-74.0894,4.6036
restaurant,fix me,taco,-74.1103,4.6148
restaurant,Romanos Pizza Gourmet Domicilios,pizza,-74.1099,4.6147
restaurant,Parrilla El Candelazo Rojo,chicken,-74.1099,4.6147
restaurant,El Punto Del Bunelo,N/A,-74.1088,4.6151
restaurant,Restaurante Chino Yūe Hān,chinese,-74.1085,4.6152
restaurant,Surtidora de Aves 22,N/A,-74.1118,4.6139
restaurant,Capettos,N/A,-74.1091,4.6152
restaurant,Pollos Jacs,chicken,-74.1081,4.6157
restaurant,El Buen Gusto,N/A,-74.1376,4.5843
restaurant,N/A,N/A,-74.1092,4.6189
restaurant,N/A,N/A,-74.1087,4.6186
restaurant,Hatsuhaa,japanese,-74.0546,4.687
restaurant,Restaurante Jackley,N/A,-74.0703,4.6396
restaurant,Restaurante July,"breakfast;lunch",-74.0719,4.6345
restaurant,Restaurante Delicias Colombianas,N/A,-74.0766,4.6113
restaurant,Espacio disponible para renta,N/A,-74.0701,4.6272
restaurant,Brassy Pollo,N/A,-74.1399,4.5787
restaurant,"Restaurante Las Delicas De ""E""",N/A,-74.0805,4.6158
restaurant,La 21,N/A,-74.0785,4.6175
restaurant,La Oficina,N/A,-74.0769,4.6128
restaurant,N/A,burger,-74.0775,4.6085
restaurant,Restaurante Las Paisas,N/A,-74.0853,4.6022
restaurant,BÜN Burgers & Fries,N/A,-74.0512,4.6932
restaurant,Frenomuelles LA 16,N/A,-74.0863,4.5988
restaurant,Luehetty,N/A,-74.0877,4.6045
restaurant,Jose Parrilla,N/A,-74.0878,4.6044
restaurant,Asadero Las Leñitos,N/A,-74.0885,4.6035
restaurant,N/A,N/A,-74.1167,4.5153
restaurant,Zapatoca,N/A,-74.1036,4.5894
restaurant,Restaurante El Molino,N/A,-74.0787,4.608
restaurant,Resturante y Asadero El Rancho Sangileño,N/A,-74.0835,4.6026
restaurant,Pollo Cool,N/A,-74.0905,4.6053
restaurant,Pasteleria Gourmet,N/A,-74.0906,4.6053
restaurant,Lechona Gourmet & Mac,N/A,-74.089,4.6062
restaurant,Restaurante El Humero,N/A,-74.0849,4.6055
restaurant,Leone,N/A,-74.0872,4.605
restaurant,El Zorro,N/A,-74.0884,4.6032
restaurant,Restaurante Oros,N/A,-74.0911,4.6026
restaurant,Portal del Llama,N/A,-74.0899,4.6045
restaurant,Sabrosito Broaster,N/A,-74.0897,4.6046
restaurant,Restaurante La Tiend De Juanpa,N/A,-74.0843,4.6303
restaurant,El Fogón Caqueceńo,N/A,-74.0898,4.5937
restaurant,Tamalandia Express,N/A,-74.0883,4.6302
restaurant,Asadero Restaurante El Carbón Veleñd,N/A,-74.0926,4.5904
restaurant,N/A,N/A,-74.0959,4.5912
restaurant,San Sebastian Carnes Finas,N/A,-74.0966,4.5906
restaurant,Luna Park,N/A,-74.0981,4.5896
restaurant,Restaurante Cafatería Delicias de Santamaria,N/A,-74.0969,4.5868
restaurant,Restaurante Cfeteria,N/A,-74.0974,4.5664
restaurant,El Sazon Tolimense,N/A,-74.0978,4.5659
restaurant,Resturante Nelly,N/A,-74.0662,4.6839
restaurant,Restaurante y Cafatería Donde Jose,N/A,-74.0915,4.5899
restaurant,El Nigalito,N/A,-74.0917,4.5901
restaurant,Personal Pizza,pizza,-74.0959,4.5916
restaurant,Pollo Karnikos,N/A,-74.097,4.59
restaurant,Restaurante A tu Gusto,N/A,-74.0972,4.5898
restaurant,Asadero De Carne Mi Explendido Ranchto,N/A,-74.0974,4.5883
restaurant,Gran Caldas,N/A,-74.0969,4.5874
restaurant,Asadero Los Lenuos Express,N/A,-74.1006,4.5879
restaurant,Sandwich Gourmet Salsa de Ajo,N/A,-74.1002,4.5874
restaurant,Deleite,N/A,-74.0968,4.6381
restaurant,Maxx Broaster,N/A,-74.1003,4.5889
restaurant,Restaurante y Pescaderia Isla Del Pacifico,N/A,-74.0995,4.5862
restaurant,N/A,N/A,-74.0988,4.585
restaurant,N/A,N/A,-74.1016,4.5884
restaurant,Restaurante Alcala,N/A,-74.0957,4.6335
restaurant,Restaurante 3/4,N/A,-74.09,4.6329
restaurant,La Hallaqueria,N/A,-74.0944,4.6324
restaurant,La Marrana de Ana,N/A,-74.095,4.6332
restaurant,PPC,pizza,-74.094,4.6322
restaurant,Mr Frank Burger and Pizza,N/A,-74.0932,4.6309
restaurant,N/A,N/A,-74.0969,4.6372
restaurant,Master Pan,N/A,-74.1347,4.565
restaurant,N/A,N/A,-74.1348,4.5651
restaurant,El Titiritero,N/A,-74.0943,4.6285
restaurant,El Sabor Costeno,N/A,-74.1069,4.6313
restaurant,La Campiña,N/A,-74.0983,4.6275
restaurant,Pollitos Broaster,chicken,-74.145,4.5614
restaurant,La Paisa,N/A,-74.1071,4.6339
restaurant,Surviaves de la 29,N/A,-74.1496,4.5687
restaurant,Colombo Suizo,N/A,-74.1326,4.5632
restaurant,Plenitad,burger,-74.1491,4.5685
restaurant,Kino's Broaster,chicken,-74.1492,4.5685
restaurant,Distra 20,N/A,-74.1502,4.5692
restaurant,La Paisa,N/A,-74.1353,4.5552
restaurant,El Venado de Oro,N/A,-74.1371,4.5576
restaurant,Surtidora Deiaves,N/A,-74.1293,4.5695
restaurant,Flores & Banquetes,N/A,-74.1044,4.6682
restaurant,Pizza Hut,pizza,-74.1187,4.6651
restaurant,Pipper's Pizza,N/A,-74.1186,4.6671
restaurant,Rica's Pizza,pizza,-74.1184,4.6673
restaurant,Max Wings,N/A,-74.1179,4.6677
restaurant,Verona,pizza,-74.1165,4.6689
restaurant,Cocina Thai,thai,-74.0991,4.626
restaurant,Cocina Italiano,italian,-74.0992,4.626
restaurant,Mango,N/A,-74.0993,4.626
restaurant,La Barra,N/A,-74.0992,4.626
restaurant,Brasa's Américas,N/A,-74.099,4.626
restaurant,La Bodega,N/A,-74.1181,4.6678
restaurant,Modelia Weng Yong,N/A,-74.1178,4.6681
